名称,施設概要,郵便番号,住所,電話番号,設備の写真,利用時間,関連HP,施設カテゴリ,緯度,経度
塩原温泉華の湯,,329-2923,栃木県那須塩原市上塩原603番地,0287-31-1058,,開館時間午前10時から午後9時まで 休館日毎週月曜日（祝祭日の場合は翌日）,,観光施設,36.98225712662826,139.78511729883547
塩原温泉ビジターセンター,,329-2921,栃木県那須塩原市塩原前山国有林,0287-32-3050,,利用時間午前9時から午後4時30分まで 休館日毎週火曜日（祝祭日の場合は翌日）・年始年末（12月29日から1月3日まで）,,観光施設,36.96682003331559,139.83367117062235
塩原温泉天皇の間記念公園,,329-2921,栃木県那須塩原市塩原1266番地113,0287-32-4037,,開園時間午前9時から午後5時まで（ただし、12月1日から3月31日までの間は午前9時から午後4時30分まで） 休園日毎週水曜日（祝際日の場合は翌日、ただし7月20日から8月31日までは無休）,,観光施設,36.966911670334134,139.8353910183293
もみじ谷大吊橋,,329-2801,栃木県那須塩原市関谷1425番地60,0287-34-1037,,利用時間午前8時30分から午後6時まで（ただし、11月1日から翌年3月31日までの間は午前8時30分から午後4時まで） 休業日なし（年中無休）,,観光施設,36.95365193623206,139.8806063881102
塩原温泉湯っ歩の里,,329-2921,栃木県那須塩原市塩原602番地1,0287-32-3101,,開館時間午前9時から午後6時まで（注）12月1日から3月31日の冬季は午前9時から午後5時まで 休館日 毎週木曜日（祝祭日にあたる場合は翌日）,,観光施設,36.96837085660374,139.82283293915154
塩原もの語り館,,329-2921,栃木県那須塩原市塩原747,0287-32-4000,,利用時間 【展示室】午前8時30分から午後6時00分【売店】午前8時30分から午後6時00分【レストラン】午前10時～午後4時30分ラストオーダー午後4時【直売所】4月下旬～11月30日午前8時～午後4時（12月～3月は休業）,,観光施設,36.971703790932274,139.81977755984948
塩原温泉家族旅行村【箱の森プレイパーク】,,329-2924,栃木県那須塩原市中塩原字箱の森,0287-32-3018,,開村・開館時間箱の森プレイパーク午前9時から午後5時まで遊湯センター　午前10時から午後8時まで 休村・休館日7月20日から8月31日までを除く毎週水曜日（祝祭日の場合は翌日）年始年末（12月29日から1月3日まで）ケビン・バーベキュー場・遊湯センター・ホビーの里・自転車広場については、冬季休館（12月1日～3月31日）,,観光施設,36.9841930845898,139.80973479081922
