都道府県コード又は市区町村コード,NO,都道府県名,市区町村名,名称,名称_カナ,名称_英語,POIコード,住所,方書,緯度,経度,利用可能曜日,開始時間,終了時間,利用可能日時特記事項,料金（基本）,料金（詳細）,説明,説明_英語,アクセス方法,駐車場情報,バリアフリー情報,連絡先名称,連絡先電話番号,連絡先内線番号,画像,画像_ライセンス,URL,備考
423912,1,長崎県,佐々町,古川岳展望所,フルカワダケテンボウショ,Mt.Furukawa,203,長崎県北松浦郡佐々町古川免563-30,,33.245519,129.648501,月火水木金土日,,,,0,無料,神が降る山と言われ全長3.3キロの遊歩道に10体の菩薩像があり、頂上の展望所からは佐々町が一望できます。,"There are 10 Bodhisattva statues on the 3.3 km long promenade, which is said to be the mountain where the gods fall, and you can overlook Saza Town from the observatory at the top.",登山口まで松浦鉄道「清峰高校前」から徒歩で20分または西肥バス「小春」から徒歩で15分,登山口前に駐車スペース5台,,佐々町役場産業経済課,0956-62-2101,,,,,
423912,2,長崎県,佐々町,医王山東光寺,イオウサントウコウジ,Tokoji Temple,702,長崎県北松浦郡佐々町羽須和免533,,33.236587,129.653009,,,,,0,無料,室町時代に創建された豊臣秀吉にまつわる如来像があるお寺です。事前予約すれば座禅もできます。,"It is a temple with a statue of Tathagata related to Toyotomi Hideyoshi, which was built in the Muromachi period. You can also do zazen if you make a reservation in advance.",MR佐々駅から徒歩で10分,裏参道側に駐車スペース20台,,東光寺,0956-63-2043,,,,https://www.sazacho-nagasaki.jp/kankou/kiji003712/index.html,
423912,3,長崎県,佐々町,皿山公園,サラヤマコウエン,Sarayama Park,1003,長崎県北松浦郡佐々町市瀬免645,,33.25701,129.656527,月火水木金土日,9:00,18:00,,0,無料,アスレチックや全長51ｍのロング滑り台など豊富な遊具で小さなお子様も思いっきり遊べる公園です。,It is a park where even small children can play to their heart's content with abundant playset such as athletics and a long slide with a total length of 51 m.,西肥バス「小春」バス停より徒歩10分,近隣駐車スペース合わせて160台,多目的トイレ有り,佐々町役場建設課,0956-62-2101,,,,https://www.sazacho-nagasaki.jp/kiji003202/index.html,
423912,4,長崎県,佐々町,皿山公園花菖蒲園,サラヤマコウエンハナショウブエン,Sarayama Park Iris Garden,202,長崎県北松浦郡佐々町市瀬免646,,33.25701,129.656527,月火水木金土日,,,花菖蒲の開花時期は5月〜6月,0,無料,毎年5月から6月のはじめにかけて2万株の花菖蒲が咲き乱れます。,"Every year from May to the beginning of June, 20,000 irises bloom in full bloom.",西肥バス「小春」バス停より徒歩10分,近隣駐車スペース合わせて160台,多目的トイレ有り,佐々町役場産業経済課,0956-62-2101,,,,https://www.sazacho-nagasaki.jp/kiji003202/index.html,
423912,5,長崎県,佐々町,皿山窯体験施設,サラヤマカマタイケンシセツ,Sarayama kiln experience facility,1010,長崎県北松浦郡佐々町鴨川免351,,33.256083,129.655196,火水木金土日,9:00,21:00,曜日により、開催時間が変わります。,,一日体験・入門コース・速習コースなどで異なります。,専門家の指導を受けながら、土こね、ろくろ、絵付け、着色など陶芸全般の本格的な体験ができます。,"With the guidance of an expert, you can experience full-scale ceramic art such as clay kneading, potter's wheel, painting, and coloring.",西肥バス「小春」バス停より徒歩10分,近隣駐車スペース合わせて160台,多目的トイレ有り,佐々町役場産業経済課,0956-62-2101,,,,https://www.sazacho-nagasaki.jp/kankou/kiji0031588/index.html,
423912,6,長崎県,佐々町,でんでんパーク☆さざ,デンデンパークサザ,Denden Park Saza,1003,長崎県北松浦郡佐々町小浦免41-10,,33.222141,129.64114,月火水木金土日,8:00,20:00,,0,無料,タワー型複合遊具やロープクライミング遊具など充実したアスレチックがあり、幼児から高学年まで楽しく遊べる公園です。,It is a park where you can enjoy playing from infants to upper grades with a variety of athletics such as tower type compound playset and rope climbing playset.,松浦鉄道「小浦」駅より徒歩3分,公園横に駐車スペース140台,多目的トイレ有り,佐々町教育委員会,0956-62-2128,,,,https://www.sazacho-nagasaki.jp/kiji003205/,
423912,7,長崎県,佐々町,桜づつみ遊歩道,サクラヅツミユウホドウ,Sakura dutsumi Promenade,202,長崎県北松浦郡佐々町古川免,,33.237384,129.64681,月火水木金土日,,,菜の花・河津桜の開花時期は冬から春にかけて,0,無料,早咲きの菜の花が満開になるころ追うように河津桜が咲き始め、訪れる人々の目を楽しませます。,"Kawazu cherry blossoms begin to bloom as if the early blooming rape blossoms are in full bloom, which will delight the eyes of visitors.",松浦鉄道「佐々」駅より徒歩10分,シーズン中は臨時駐車場あり,多目的トイレ有り,佐々町役場産業経済課,0956-62-2101,,,,https://www.sazacho-nagasaki.jp/kankou/kiji0033460/index.html,
423912,8,長崎県,佐々町,真竹谷,マタケダニ,Matake valley,202,長崎県北松浦郡佐々町古川免560-2,,33.251429,129.643253,月火水木金土日,,,しだれ桜の開花時期は3月から4月,0,無料,県下一、全国でも珍しい11品種60本の枝垂れ桜の谷、満開の季節にはたくさんの人でにぎわいます。,"The valley of 60 weeping cherry trees of 11 varieties, which is rare in the prefecture, is crowded with many people during the full bloom season.",松浦鉄道「佐々」駅より車で15分,駐車スペース5台,,佐々町役場産業経済課,0956-62-2101,,,,https://www.sazacho-nagasaki.jp/kiji0033513/index.html,
