市区町村コード,NO,都道府県名,市区町村名,名称,名称_カナ,名称_英語,POIコード,住所,方書,緯度,経度,利用可能曜日,開始時間,終了時間,利用可能日時特記事項,料金(基本),料金(詳細),説明,説明_英語,アクセス方法,駐車場情報,バリアフリー情報,連絡先名称,連絡先電話番号,連絡先内線番号,画像,画像_ライセンス,URL,備考,郵便番号,料金要否,駐車場_有無,利用条件_有無,利用条件_詳細,託児所_有無,託児所_詳細,画像_詳細,最終確認日
132284,1,東京都,あきる野市,秋川渓谷瀬音の湯,アキガワケイコクセオトノユ,,0901a,あきる野市乙津565,,35.727163,139.187838,月；火；水；木；金；土；日,10:00,22:00,▽営業時間：10:00〜22:00（受付21:00まで）　▽休館日：年4回（3月、6月、9月、12月）第2水曜日が休館日となり、その他は不定休。,,,,,,,,,042-595-2614,,,,,,190-0174,,,,,,,,2019/3/22
132284,2,東京都,あきる野市,戸倉しろやまテラス,トクラシロヤマテラス,,,あきる野市戸倉325,,35.725889,139.203718,月；水；木；金；土；日,10:00,17:00,▽営業時間：10：00〜17：00　▽定休日：火曜日　※7月21日?8月31日の間、休館日はなし。　※12月28日?1月4日までは休館日。　※火曜日が国民の休日場合、翌日(平日時)が休館日となる。　※施設の機能として、宿泊は１５名以上の団体のみ,,,,,,,,,042-595-1234,,,,,,190-0173 ,,,,,,,,2019/3/22
132284,3,東京都,あきる野市,秋川橋河川公園,アキガワバシカセンコウエン,,,あきる野市留原813,,35.729217,139.227889,月；水；木；金；土；日,8:30,16:00,▽通常営業期間　9月1日?11月30日・3月1日?7月19日　開園　８：３０　閉園　１６：００（入園受付１２：３０まで）　▽夏季営業期間　7月20日〜8月31日　期間中は休まず営業　開園　８：３０　閉園　１７：００（入園受付１２：３０まで）　▽冬季営業期間　12月1日?2月28日（29日)　開園　９：００　閉園　１６：００（入園受付１２：３０まで）　▽定休日：毎週火曜日 （火曜日が祝祭日の場合、水曜日休園 ）　※年末年始休業有  ,,,,,,,,,042-596-5122,,,,,,190-0152,,,,,,,,2019/3/22
132284,4,東京都,あきる野市,第１水辺公園リバーサイドパーク一の谷,ダイ１ミズベコウエンリバーサイドパークイチノタニ,,,あきる野市引田776,,35.718492,139.267005,月；火；水；木；金；土；日,8:30,16:00,▽開園時間：AM8:30〜PM4:00（入園受付はPM1:00まで）　▽休園日：毎週水曜日（祝日の場合は開園）　※年末年始休業有,,,,,,,,,042-550-3789,,,,,,197-0834 ,,,,,,,,2019/3/22
132284,5,東京都,あきる野市,第４水辺公園秋川ふれあいランド,ダイ４ミズベコウエンアキガワフレアイランド,,,あきる野市小川1343-101,,35.716833,139.316937,月；火；木；金；土；日,8:30,16:00,▽開園時間：AM8:30〜PM4:00（入園受付はPM1:00まで）　▽休園日：毎週水曜日（祝日の場合は開園）　※年末年始休業有,,,,,,,,,042-550-4989,,,,,,197-0834 ,,,,,,,,2019/3/22
132284,6,東京都,あきる野市,あきる野ふるさと工房,アキルノフルサトコウボウ,,,あきる野市乙津671,,35.722946,139.17905,月；火；水；木；金；土；日,9:30,17:00,▽開館時間：午前９時３０分から午後５時まで（受付締め切り時間 　午後４時００分）　▽休館日：4月〜9月：火曜日・水曜日　10月〜3月：土曜日・日曜日　※年末・年始は、12月28日から1月4日まで　※臨時休館あり,,,,,,,,,042-596-6000,,,,,,190-0174,,,,,,,,2019/3/22
