都道府県コード又は市区町村コード,NO,都道府県名,市区町村名,名称,名称_カナ,名称_英語,POIコード,住所,方書,緯度,経度,利用可能曜日,開始時間,終了時間,利用可能日時特記事項,料金.基本.,料金.詳細.,説明,説明_英語,アクセス方法,駐車場情報,バリアフリー情報,連絡先名称,連絡先電話番号,連絡先内線番号,画像,画像_ライセンス,URL,備考
271004,,大阪府,大阪市,大阪市立浪速図書館,オオサカシリツナニワトショカン,,,浪速区敷津西1-5-23,,34.6585779,135.49596880000001,,,,,,,,,,,https://www.osaka-heartfulweb.jp/100501.html,大阪市立浪速図書館,06-6632-4946,,,,http://www.oml.city.osaka.jp/info/59naniwa/,文化・観光/図書館
271004,,大阪府,大阪市,大阪科学技術館,オオサカカガクギジュツカン,,,西区靱本町1-8-4,,34.6864329,135.4961891,,,,,,,,,,,https://www.osaka-heartfulweb.jp/060401.html,大阪科学技術館,06-6441-0915,,,,,文化・観光/美術館・博物館
271004,,大阪府,大阪市,住まいのミュージアム「大阪くらしの今昔館」,スマイノミュージアム「オオサカクラシノコンジャクカン」,,,北区天神橋6-4-20,,34.7102359,135.5116668,,,,,,,,,,,,住まいのミュージアム「大阪くらしの今昔館」,06-6242-1170,,,,http://konjyakukan.com/,文化・観光/美術館・博物館
271004,,大阪府,大阪市,大阪市立住之江図書館,オオサカシリツスミノエトショカン,,,住之江区南加賀屋3-1-20,,34.606406,135.4749253,,,,,,,,,,,,大阪市立住之江図書館,06-6683-2788,,,,http://www.oml.city.osaka.jp/info/69suminoe/index.html,文化・観光/図書館
271004,,大阪府,大阪市,国立国際美術館,コクリツコクサイビジュツカン,,,北区中之島4-2-55,,34.691764,135.4921581,,,,,,,,,,,https://www.osaka-heartfulweb.jp/010404.html,国立国際美術館,06-6447-4680,,,,,文化・観光/美術館・博物館
271004,,大阪府,大阪市,大阪市立東淀川図書館,オオサカシリツヒガシヨドガワトショカン,,,東淀川区東淡路1-4-53,,34.7338612,135.5197557,,,,,,,,,,,,大阪市立東淀川図書館,06-6323-5476,,,,http://www.oml.city.osaka.jp/info/62higashiyodogawa/,文化・観光/図書館
271004,,大阪府,大阪市,府立中之島図書館,フリツナカノシマトショカン,,,北区中之島1-2-10,,34.6936888,135.5031528,,,,,,,,,,,,府立中之島図書館,06-6203-0474,,,,,文化・観光/図書館
271004,,大阪府,大阪市,市立大学学術情報総合センター,シリツダイガクガクジュツジョウホウソウゴウセンター,,,住吉区杉本3丁目3番138号,,34.5922109,135.5054691,,,,,,,,,,,,市立大学学術情報総合センター,06-6605-3240,,,,http://www.media.osaka-cu.ac.jp/,文化・観光/図書館
271004,,大阪府,大阪市,ピースおおさか：大阪国際平和センター,ピースオオサカ：オオサカコクサイヘイワセンター,,,中央区大阪城2-1,,34.6817669,135.5295862,,,,,,,,,,,https://www.osaka-heartfulweb.jp/050405.html,ピースおおさか：大阪国際平和センター,06-6947-7208,,,,http://www.peace-osaka.or.jp/,文化・観光/美術館・博物館
271004,,大阪府,大阪市,府立現代美術センター,フリツゲンダイビジュツセンター,,,中央区大手前3-1-43　大阪府新別館北館・南館,,34.683842,135.5182472,,,,,,,,,,,https://www.osaka-heartfulweb.jp/051403.html,府立現代美術センター,06-4790-8520,,,,http://www.osaka-art.jp/,文化・観光/美術館・博物館
271004,,大阪府,大阪市,大阪市立島之内図書館,オオサカシリツシマノウチトショカン,,,中央区島之内2-12-31,,34.671475,135.5078919,,,,,,,,,,,https://www.osaka-heartfulweb.jp/050501.html,大阪市立島之内図書館,06-6211-3645,,,,http://www.oml.city.osaka.jp/info/55shimanouchi/index.html,文化・観光/図書館
271004,,大阪府,大阪市,大阪歴史博物館,オオサカレキシハクブツカン,,,中央区大手前4-1-32,,34.6825581,135.5207171,,,,,,,,,,,https://www.osaka-heartfulweb.jp/050404.html,大阪歴史博物館,06-6946-5728,,,,http://www.mus-his.city.osaka.jp/,文化・観光/美術館・博物館
271004,,大阪府,大阪市,大阪城天守閣,オオサカジョウテンシュカク,,,中央区大阪城1-1,,34.687447,135.525822,,,,,,,,,,,https://www.osaka-heartfulweb.jp/050401.html,大阪城天守閣,06-6941-3044,,,,http://www.osakacastle.net/,文化・観光/美術館・博物館
271004,,大阪府,大阪市,府立上方演芸資料館（ワッハ上方）,フリツカミガタエンゲイシリョウカン（ワッハカミガタ）,,,中央区難波千日前12-7　ＹＥＳ・ＮＡＭＢＡビル,,34.6646249,135.5030578,,,,,,,,,,,,府立上方演芸資料館（ワッハ上方）,06-6631-0884,,,,http://www.wahha.or.jp/,文化・観光/美術館・博物館
271004,,大阪府,大阪市,適塾,テキジュク,,,中央区北浜3-3-8,,34.6912078,135.5032438,,,,,,,,,,,,適塾,06-6231-1970,,,,,文化・観光/美術館・博物館
271004,,大阪府,大阪市,上方浮世絵館,カミガタウキヨエカン,,,中央区難波1-6-4,,34.6679531,135.5021921,,,,,,,,,,,,上方浮世絵館,06-6211-0303,,,,,文化・観光/美術館・博物館
271004,,大阪府,大阪市,国立文楽劇場,コクリツブンラクゲキジョウ,,,中央区日本橋1-12-10,,34.6673609,135.5084558,,,,,,,,,,,https://www.osaka-heartfulweb.jp/050406.html,国立文楽劇場,06-6212-2531,,,,,文化・観光/美術館・博物館
271004,,大阪府,大阪市,湯木美術館,ユキビジュツカン,,,中央区平野町3-3-9,,34.6875168,135.5022467,,,,,,,,,,,,湯木美術館,06-6203-0188,,,,,文化・観光/美術館・博物館
271004,,大阪府,大阪市,大阪市立旭図書館,オオサカシリツアサヒトショカン,,,旭区中宮1-11-14,,34.720828,135.5424418,,,,,,,,,,,https://www.osaka-heartfulweb.jp/160501.html,大阪市立旭図書館,06-6955-0307,,,,http://www.oml.city.osaka.jp/info/65asahi/,文化・観光/図書館
271004,,大阪府,大阪市,大阪市立此花図書館,オオサカシリツコノハナトショカン,,,此花区四貫島1-1-18,,34.6859331,135.4569527,,,,,,,,,,,https://www.osaka-heartfulweb.jp/040501.html,大阪市立此花図書館,6463-3463,,,,http://www.oml.city.osaka.jp/info/54konohana/index.html,文化・観光/図書館
271004,,大阪府,大阪市,アジア・太平洋人権情報センター（ヒューライツ大阪）,アジアタイヘイヨウジンケンジョウホウセンター（ヒューライツオオサカ）,,,西区西本町1-7-7 CE西本町ビル8階,,34.6831845,135.4967478,,,,,,,国際的な人権情報の収集・提供,,,,,アジア・太平洋人権情報センター（ヒューライツ大阪）,06-6543-7003,,,,http://www.hurights.or.jp/index_j.html,文化・観光/美術館・博物館
271004,,大阪府,大阪市,大阪市立港図書館,オオサカシリツミナトトショカン,,,港区弁天2-1-5,,34.6677469,135.4585717,,,,,,,,,,,,大阪市立港図書館,06-6576-2346,,,,http://www.oml.city.osaka.jp/info/56minato/,文化・観光/図書館
271004,,大阪府,大阪市,下水道科学館,ゲスイドウカガクカン,,,此花区高見1-2-53,,34.6935249,135.462478,,,,,,,,,,,https://www.osaka-heartfulweb.jp/040401.html,下水道科学館,6466-3170,,,,http://www.city-osaka-sewerage-museum.or.jp/,文化・観光/美術館・博物館
271004,,大阪府,大阪市,ユニバーサル・スタジオ・ジャパン,ユニバーサル・スタジオ・ジャパン,,,此花区桜島2-1-33,,34.6660081,135.4316418,,,,,,,,,,,,ユニバーサル・スタジオ・ジャパン,6465-3000,,,,,文化・観光/美術館・博物館
271004,,大阪府,大阪市,ビジターズインフォメーションセンター梅田,ビジターズインフォメーションセンター・ウメダ,,,北区梅田3-1-2　JR大阪駅御堂筋口前,,34.7025641,135.4977192,,,,,,,観光案内所,,,,,ビジターズインフォメーションセンター梅田,06-6345-2189,,,,,文化・観光/その他施設
271004,,大阪府,大阪市,大阪市立住吉図書館,オオサカシリツスミヨシトショカン,,,住吉区南住吉3丁目15番57号,,34.6048389,135.5004357,,,,,,,,,,,https://www.osaka-heartfulweb.jp/210501.html,大阪市立住吉図書館,06-6606-4946,,,,http://www.oml.city.osaka.jp/info/70sumiyoshi/index.html,文化・観光/図書館
271004,,大阪府,大阪市,大阪市立阿倍野図書館,オオサカシリツアベノトショカン,,,阿倍野区阿倍野筋4-19-118,,34.641069,135.5105532,,,,,,,,,,,,大阪市立阿倍野図書館,06-6656-1009,,,,http://www.oml.city.osaka.jp/info/68abeno/,文化・観光/図書館
271004,,大阪府,大阪市,大阪市立北図書館,オオサカシリツキタトショカン,,,北区本庄東3-8-2,,34.7156859,135.508567,,,,,,,,,,,https://www.osaka-heartfulweb.jp/010501.html,大阪市立北図書館,06-6375-0410,,,,http://www.oml.city.osaka.jp/info/51kita/,文化・観光/図書館
271004,,大阪府,大阪市,東洋陶磁美術館,トウヨウトウジビジュツカン,,,北区中之島1-1-26,,34.693475,135.5053223,,,,,,,,,,,https://www.osaka-heartfulweb.jp/010402.html,東洋陶磁美術館,06-6223-0055,,,,http://www.moco.or.jp/,文化・観光/美術館・博物館
271004,,大阪府,大阪市,大阪市立科学館,オオサカシリツカガクカン,,,北区中之島4-2-1,,34.6912721,135.491506,,,,,,,,,,,https://www.osaka-heartfulweb.jp/010401.html,大阪市立科学館,06-6444-5656,,,,http://www.sci-museum.jp/,文化・観光/美術館・博物館
271004,,大阪府,大阪市,キッズプラザ大阪,キッズプラザオオサカ,,,北区扇町2-1-7,,34.7048421,135.5102224,,,,,,,,,,,https://www.osaka-heartfulweb.jp/011202.html,キッズプラザ大阪,06-6311-6601,,,,http://www.kidsplaza.or.jp/,文化・観光/美術館・博物館
271004,,大阪府,大阪市,造幣博物館,ゾウヘイハクブツカン,,,北区天満1-1-79,,34.6959002,135.5216813,,,,,,,,,,,,造幣博物館,06-6351-8509,,,,,文化・観光/美術館・博物館
271004,,大阪府,大阪市,海遊館,カイユウカン,,,港区海岸通1-1-10,,34.654564,135.4288107,,,,,,,,,,,https://www.osaka-heartfulweb.jp/070401.html,海遊館,06-6576-5501,,,,http://www.kaiyukan.com/index.html,文化・観光/美術館・博物館
271004,,大阪府,大阪市,海岸通ギャラリーCASO,カイガンドオリギャラリーカソ,,,港区海岸通2-7-23,,34.651072,135.4379998,,,,,,,,,,,,海岸通ギャラリーCASO,06-6576-3633,,,,http://www.cwo.zaq.ne.jp/caso/,文化・観光/美術館・博物館
271004,,大阪府,大阪市,日本ライトハウス情報文化センター,ニッポンライトハウスジョウホウブンカセンター,,,西区江戸堀1-13-2,,34.6919749,135.4960139,,,,,,,,,,,,日本ライトハウス情報文化センター,06-6441-0015,,,,,文化・観光/図書館
271004,,大阪府,大阪市,大阪市公文書館,オオサカシコウブンショカン,,,西区北堀江4-3-14,,34.6736001,135.4858203,,,,,,,,,,,,大阪市公文書館,06-6534-1662,,,,http://www.city.osaka.lg.jp/somu/page/0000003759.html,文化・観光/図書館
271004,,大阪府,大阪市,大阪市立中央図書館,オオサカシリツチュウオウトショカン,,,西区北堀江4-3-2,,34.673961,135.4859692,,,,,,,,,,,https://www.osaka-heartfulweb.jp/060501.html,大阪市立中央図書館,06-6539-3300,,,,http://www.oml.city.osaka.jp/info/10chuo/index.html,文化・観光/図書館
271004,,大阪府,大阪市,大阪市立平野図書館,オオサカシリツヒラノトショカン,,,平野区平野東1-8-2,,34.6244109,135.5593,,,,,,,,,,,https://www.osaka-heartfulweb.jp/230501.html,大阪市立平野図書館,06-6793-0881,,,,http://www.oml.city.osaka.jp/info/72hirano/,文化・観光/図書館
271004,,大阪府,大阪市,クラフトパーク,クラフトパーク,,,平野区長吉六反1-8-44,,34.610156,135.5792689,,,,,,,,,,,https://www.osaka-heartfulweb.jp/230401.html,クラフトパーク,06-4302-9210,,,,,文化・観光/美術館・博物館
271004,,大阪府,大阪市,大阪市立淀川図書館,オオサカシリツヨドガワトショカン,,,淀川区新北野1-10-14,,34.7160972,135.4811527,,,,,,,,,,,https://www.osaka-heartfulweb.jp/120501.html,大阪市立淀川図書館,06-6305-2346,,,,http://www.oml.city.osaka.jp/riyou/61yodogawa.html,文化・観光/図書館
271004,,大阪府,大阪市,日本工芸館,ニホンコウゲイカン,,,浪速区難波中3-7-6,,34.661133,135.4986078,,,,,,,,,,,,日本工芸館,06-6641-6309,,,,http://www.nihon-kogeikan.or.jp/,文化・観光/美術館・博物館
271004,,大阪府,大阪市,大阪人権博物館（リバティおおさか）,オオサカジンケンハクブツカン（リバティオオサカ）,,,浪速区浪速西3-6-36,,34.6545219,135.4864502,,,,,,,,,,,,大阪人権博物館（リバティおおさか）,06-6561-5891,,,,http://www.liberty.or.jp/,文化・観光/美術館・博物館
271004,,大阪府,大阪市,藤田美術館,フジタビジュツカン,,,都島区網島町10-32,,34.6950471,135.5250392,,,,,,,,,,,,藤田美術館,06-6351-0852,,,,,文化・観光/美術館・博物館
271004,,大阪府,大阪市,自然史博物館,シゼンシハクブツカン,,,東住吉区長居公園内,,34.610264,135.5223247,,,,,,,,,,,,自然史博物館,06-6697-6221,,,,http://www.mus-nh.city.osaka.jp/,文化・観光/美術館・博物館
271004,,大阪府,大阪市,長居植物園,ナガイショクブツエン,,,東住吉区長居公園内,,34.6110029,135.5218423,,,,,,,,,,,,長居植物園,06-6696-7117,,,,http://www.ocsga.or.jp/n-syoku/index.html,文化・観光/美術館・博物館
271004,,大阪府,大阪市,大阪市立東住吉図書館,オオサカシリツヒガシスミヨシトショカン,,,東住吉区東田辺2-11-28,,34.620514,135.527503,,,,,,,,,,,,大阪市立東住吉図書館,06-6699-7000,,,,,文化・観光/図書館
271004,,大阪府,大阪市,大阪市立東成図書館,オオサカシリツヒガシナリトショカン,,,東成区大今里西3丁目2番17号,,34.6681847,135.5412311,,,,,,,,,,,,大阪市立東成図書館,06-6972-0727,,,,http://www.oml.city.osaka.jp/info/63higashinari/,文化・観光/図書館
271004,,大阪府,大阪市,大阪市立福島図書館,オオサカシリツフクシマトショカン,,,福島区吉野3-17-23（区民センター3階）,,34.6913921,135.4731311,,,,,,,,,,,,大阪市立福島図書館,06-6468-2336,,,,http://www.oml.city.osaka.jp/info/53fukushima/,文化・観光/図書館
271004,,大阪府,大阪市,大阪市立西淀川図書館,オオサカシリツニシヨドガワトショカン,,,西淀川区御幣島1丁目2番10号,,34.7111331,135.4561112,,,,,,,,,,,,大阪市立西淀川図書館,06-6474-7900,,,,http://www.oml.city.osaka.jp/info/60nishiyodogawa/,文化・観光/図書館
271004,,大阪府,大阪市,大阪市立大正図書館,オオサカシリツタイショウトショカン,,,大正区千島2-6-15,,34.6509919,135.4720673,,,,,,,,,,,,大阪市立大正図書館,06-6552-1116,,,,http://www.oml.city.osaka.jp/info/57taisho/,文化・観光/図書館
271004,,大阪府,大阪市,大阪市立鶴見図書館,オオサカシリツツルミトショカン,,,鶴見区横堤5-3-15,,34.704533,135.5735138,,,,,,,,,,,,大阪市立鶴見図書館,06-6913-0772,,,,http://www.oml.city.osaka.jp/info/67tsurumi/,文化・観光/図書館
271004,,大阪府,大阪市,咲くやこの花館,サクヤコノハナカン,,,鶴見区緑地公園２−１６３,,34.710103,135.5736277,,,,,,,,,,,https://www.osaka-heartfulweb.jp/180401.html,咲くやこの花館,06-6912-0055,,,,http://www.sakuyakonohana.com/,文化・観光/美術館・博物館
271004,,大阪府,大阪市,大阪市立天王寺図書館,オオサカシリツテンノウジトショカン,,,天王寺区上之宮町4-47,,34.6614892,135.5220693,,,,,,,,,,,https://www.osaka-heartfulweb.jp/090501.html,大阪市立天王寺図書館,06-6771-2840,,,,http://www.oml.city.osaka.jp/info/58tennoji/index.html,文化・観光/図書館
271004,,大阪府,大阪市,天王寺動植物公園事務所,テンノウジドウショクブツコウエンジムショ,,,天王寺区茶臼山1-108,,34.651286,135.5103248,,,,,,,,,,,,天王寺動植物公園事務所,06-6771-8401,,,,,文化・観光/美術館・博物館
271004,,大阪府,大阪市,大阪市立美術館,オオサカシリツビジュツカン,,,天王寺区茶臼山1-82,,34.650142,135.510442,,,,,,,,,,,https://www.osaka-heartfulweb.jp/090401.html,大阪市立美術館,06-6771-4874,,,,http://www.city.osaka.lg.jp/museum/,文化・観光/美術館・博物館
271004,,大阪府,大阪市,長生庵,チョウセイアン,,,天王寺区茶臼山町1-108　天王寺公園慶沢園内,,34.6505862,135.511361,,,,,,,,,,,,長生庵,06-6771-8401(天王寺動植物公園事務所),,,,,文化・観光/美術館・博物館
271004,,大阪府,大阪市,慶沢園,ケイタクエン,,,天王寺区茶臼山町1-108　天王寺公園内,,34.649883,135.5110329,,,,,,,,,,,,慶沢園,06-6771-8401(天王寺動植物公園事務所),,,,,文化・観光/美術館・博物館
271004,,大阪府,大阪市,天王寺動物園,テンノウジドウブツエン,,,天王寺区茶臼山町1-108　天王寺公園内,,34.6507395,135.5076049,,,,,,,,,,,,天王寺動物園,06-6771-8401 (天王寺動植物公園事務所),,,,http://www.jazga.or.jp/tennoji,文化・観光/美術館・博物館
271004,,大阪府,大阪市,大阪市立生野図書館,オオサカシリツイクノトショカン,,,生野区勝山南4丁目7番11号,,34.653167,135.5397583,,,,,,,,,,,https://www.osaka-heartfulweb.jp/150501.html,大阪市立生野図書館,06-6717-2381,,,,http://www.oml.city.osaka.jp/info/64ikuno/,文化・観光/図書館
271004,,大阪府,大阪市,ビジターズインフォメーションセンター・難波,ビジターズインフォメーションセンター・ナンバ,,,中央区難波5-1-60　南海ターミナルビル1F,,34.6642134,135.5010818,,,,,,,,,,,,ビジターズインフォメーションセンター・難波,06-6631-9100,,,,https://osaka-chushin.jp/spot/10620,文化・観光/その他施設
271004,,大阪府,大阪市,大阪市立西成図書館,オオサカシリツニシナリトショカン,,,西成区岸里1丁目1番50号,,34.6344684,135.4948854,,,,,,,,,,,,大阪市立西成図書館,06-6659-2346,,,,http://www.oml.city.osaka.jp/info/73nishinari/,文化・観光/図書館
271004,,大阪府,大阪市,大阪城本丸東側の諸櫓,オオサカジョウホンマルヒガシガワノショヤグラ,,,中央区大阪城,,34.6861219,135.5270557,,,,,,,上段の写真：幕末撮影・中段の写真：平成23年撮影 ◇◇ 慶応4年(1868)1月に炎上する前の大阪城本丸の外観を伝える幕末の湿式写真で、三層の隅櫓(手前から馬印櫓・月見櫓・糒櫓)とそれらを連結する多聞塀が石垣の上に建ち並んでいたが、明治維新の前夜、激動する時代を象徴するかのように、城内の建物群の多くとともに燃え尽きる。その後、大阪城内と周辺は軍用施設に占められることになり、昭和20年の空襲の標的になる。戦後は、昭和6年に再建された天守閣とともに、大阪城全体が公園として整備され、今の景色が市民に親しまれている。,,,,,大阪城本丸東側の諸櫓,,,,,,文化・観光/大阪の昔と今
271004,,大阪府,大阪市,初代の大阪駅,ショダイノオオサカエキ,,,北区梅田3丁目2,,34.7006956,135.4939503,,,,,,,上段の写真：明治7年(1874)撮影・中段の写真：平成23年撮影 ◇◇ 明治7年5月11日、大阪−神戸間に鉄道が開通、同9年9月5日には大阪−京都間が開通した。大阪駅舎は赤レンガ造り2階建洋風の当時としては瀟洒な停留場で、駅の出入口に庭園や池が設けられ、梅田ステンショといわれた。同34年に、新駅舎が東寄りの現在地に建築されて、駅舎の跡地は構内施設として利用されたが、昭和14年、大阪中央郵便局が移転開設された(中郵の裏あたりが旧駅舎の位置)。当時の逓信省営繕課の吉田鉄郎設計による鉄骨鉄筋コンクリート造7階建の局舎は、大阪駅前の1つの顔として長く親しまれてきたが、最近、隣接ビルとあわせた建替計画が進められている。,,,,,初代の大阪駅,,,,,,文化・観光/大阪の昔と今
271004,,大阪府,大阪市,造幣局と外輪船,ゾウヘイキョクトガイリンセン,,,北区天満1丁目1,,34.6968995,135.5215142,,,,,,,上段の写真：明治4年(1871)撮影・中段の写真：平成23年撮影 ◇◇ 明治4年4月、造幣局(当初は造幣寮)が画期的な洋式設備で貨幣製造を開始、わが国の近代的工業のさきがけとなった。左方に鋳造所の正面玄関、外輪船の行く大川に面した西洋建築の威容に人々は目を見はった。その後、昭和4年から3期にわたって工場・庁舎の改築を行い、昭和13年に全体が完成した。また、明治16年からは、構内の桜並木の一般開放を始め、以来「通り抜け」として大阪の春の風物詩となり、多くの人々で賑わっている。(平成15年に、独立行政法人造幣局となった。),,,,,造幣局と外輪船,,,,,,文化・観光/大阪の昔と今
271004,,大阪府,大阪市,八軒家船着き場,ハチケンヤフナツキバ,,,中央区天満橋京町1,,34.6907462,135.5161647,,,,,,,上段の写真：明治初年撮影・中段の写真：平成23年撮影・下段の写真：昭和17年撮影 ◇◇ 天満橋と天神橋の中間にあった大川南岸の古くからの船着き場で、8軒の船宿があったため八軒家と呼ばれた。江戸時代には、大坂と京・伏見を結ぶ三十石船など多数の船が発着したが、鉄道の発達とともに衰微した。のち平成20年に、京阪中之島線の整備に伴って、京阪天満橋駅と直結する八軒家浜船着場として、水上バス・観光船の桟橋や商業施設が整備され、つづいて大川沿いを天神橋まで続く水辺の遊歩道も整備されて、水都大阪の再生を着実に進めている。,,,,,八軒家船着き場,,,,,,文化・観光/大阪の昔と今
271004,,大阪府,大阪市,川口波止場,カワグチハトバ,,,西区川口3丁目,,34.6825588,135.4793895,,,,,,,上段の写真：明治初年撮影・中段の写真：平成23年撮影 ◇◇ 明治初年の大阪開港とともに、安治川左岸に河港の川口波止場と川口運上所・外務局・伝信局などが設けられ、上流側に外国貿易商館などが集まる川口居留地が建設された。大阪の文明開化はここから始まった。しかし、川口波止場は水深が浅く大型船の出入りが困難であったために、居留地の外国商人たちはしだいに神戸に移り、そのあとにキリスト教各派の宣教師が定住し教会・学校・病院などを創設したが、それら施設は天王寺区や阿倍野区等に移転した。居留地は明治32年に廃止された。のち、運上所は税関と改称し、現在は大阪税関富島出張所となり、そのほか港湾上屋などが建っている。,,,,,川口波止場,,,,,,文化・観光/大阪の昔と今
271004,,大阪府,大阪市,堂島川北岸の控訴院,ドウジマガワホクガンノコウソイン,,,北区西天満2丁目1,,34.6956099,135.5044302,,,,,,,上段の写真：明治34年(1901)頃撮影・中段の写真：平成23年撮影・下段の写真：昭和17年撮影 ◇◇ 堂島川沿いに建つ壮麗な建物は、明治33年3月に竣工した2代目大阪控訴院である。明治23年建築の前庁舎が火災で焼失して再建されたものだが、この庁舎も明治42年の北の大火で再び焼失してしまう。このため大正5年に、中央に高塔をもったルネサンス風煉瓦造3階建の大阪控訴院庁舎が再建され、赤レンガと呼ばれて長く親しまれた。のち建替えられることになり、昭和49年に、前庭を大きくとった現在の鉄骨鉄筋コンクリート造11階建の、大阪高等・地方・家庭裁判所合同庁舎が完成した。,,,,,堂島川北岸の控訴院,,,,,,文化・観光/大阪の昔と今
271004,,大阪府,大阪市,旧大阪府庁舎,キュウオオサカフチョウシャ,,,西区江之子島2丁目1,,34.6821104,135.4842128,,,,,,,上段の写真：大正5年(1916)頃撮影・中段の写真：平成23年撮影 ◇◇ 明治7年7月、木津川東岸の江之子島に完成した大阪府庁舎は、煉瓦造石灰モルタル塗り2階建の威風堂々たる洋風建築で、「江之子島政府」とも呼ばれた。市制発足当初の大阪市の事務もここで行われ、大正5年両翼が増築された。大正15年、府庁舎が大手前に移転した後は、府立工業奨励館となり、昭和20年戦災でほとんどが焼失した。再建されたのち、昭和48年工業技術研究所、同62年産業技術総合研究所と改称、平成8年和泉市に移転された。跡地は、事業コンペにより売却されマンションの工事中で、旧府庁舎の遺構は一部保存することとされている。また、手前右の旧産技研の施設には府立江之子島文化芸術創造センターが開設。,,,,,旧大阪府庁舎,,,,,,文化・観光/大阪の昔と今
271004,,大阪府,大阪市,江之子島の初代市庁舎,エノコジマノショダイシチョウシャ,,,西区江之子島1丁目9,,34.6830907,135.4841387,,,,,,,上段の写真：明治32年(1899)撮影・中段の写真：平成23年撮影 ◇◇ 明治22年の大阪市発足後も、市制特例によって業務は大阪府知事が執行していたが、市制特例廃止に伴い、明治32年12月、府庁舎の北に初代の大阪市庁舎が建設された。木造2階建て建坪250坪(830平方メートル)の仮庁舎であったが、市役所が府庁舎を離れて独立した意義は大きかった。その後も、財政難から本格的な庁舎は見送られるが、明治45年、堂島に木造庁舎を建築して移転した。跡地には、現在マツダ㈱の営業施設併設の14階建マンションが建っている。,,,,,江之子島の初代市庁舎,,,,,,文化・観光/大阪の昔と今
271004,,大阪府,大阪市,堂島の2代目市庁舎,ドウジマノニダイメシチョウシャ,,,北区堂島3丁目1,,34.6958832,135.4917296,,,,,,,"上段の写真：明治45年(1912)撮影・中段の写真：平成23年撮影 ◇◇ 明治45年5月、堂島浜通に竣工した2代目市庁舎。財政難から木造2階建ての仮庁舎で、延坪は1,633坪(5,398平方m)、初めて市会議事堂を備えた。その後、大正10年に、ようやく本格的な市庁舎が中之島に建設されて移転した。跡地には、昭和2年に鉄筋コンクリート造4階建の大阪中央電話局が建築される。のち大阪市外電話局となり、現在は、8階建のNTTテレパーク堂島第1ビルとなっている。",,,,,堂島の2代目市庁舎,,,,,,文化・観光/大阪の昔と今
271004,,大阪府,大阪市,桜の宮水源地,サクラノミヤスイゲンチ,,,都島区中野町5丁目　,,34.7073843,135.5203008,,,,,,,上段の写真：明治28年(1895)撮影・中段の写真：平成23年撮影・下段の写真：昭和17年撮影 ◇◇ 大川西岸から、創設当時の桜の宮水源地を眺望。堤防下にあった取水口は現在も保存されている。明治28年、大川沿いに桜の宮水源地が完成し、大阪市の水道が創設された。のち、大正3年に新淀川沿いに柴島水源地が完成、桜の宮水源地は廃止されて、跡地には、市電都島車庫(大正11年)、官設鉄道淀川貨物駅(昭和2年)が開設された。その後、市電車庫は昭和44年、貨物駅は昭和57年に廃止となる。貨物駅跡地は、設計競技による桜之宮中野地区都市型集合住宅プロジェクト開発によって、12～41階建の高層住宅群が平成4年に完成、市電車庫跡地には大阪市総合医療センターが平成5年に開設した。,,,,,桜の宮水源地,,,,,,文化・観光/大阪の昔と今
271004,,大阪府,大阪市,津守下水処理場,ツモリゲスイショリジョウ,,,西成区津守2丁目7,,34.6427322,135.4820346,,,,,,,上段の写真：昭和15年(1940)撮影・中段の写真：平成23年撮影・下段の写真：昭和17年撮影 ◇◇ 市岡実験処理場の成果を基礎に、昭和6年、急を要する都心部を対象に都市計画下水処理事業に着手し、昭和15年、中部の津守下水処理場と北部の海老江下水処理場が完成した。これによって、それまで下水管で直接河川に放流していた下水が、浄化処理したうえで河川に放流されることになった。最近では、PFI(民間資金・技術力等活用)事業により、下水汚泥の処理過程で発生する消化ガスを燃料として発電を行い、処理場の使用電力の一部にあてたり、場内の緑化などの取り組みも進めている。,,,,,津守下水処理場,,,,,,文化・観光/大阪の昔と今
271004,,大阪府,大阪市,築港大桟橋,チッコウオオサンバシ,,,港区海岸通1丁目5,,34.6512904,135.4277739,,,,,,,上段の写真：明治36年(1903)頃撮影・中段の写真：平成23年撮影・下段の写真：昭和17年撮影 ◇◇ 大阪港の築港大桟橋は長さ454mで、明治36年8月に供用開始した。当初は思うように利用が伸びなかったが、大正期には第1次世界大戦景気で貿易が進展し、大大阪の発展に大きく貢献する。昭和9年の室戸台風で大破し、その後波除堤が築造され、昭和19年に、大桟橋に代わり長さ350mの中央突堤が完成するものの、戦災や地震・高潮で壊滅的な被害を受ける。復旧後の中央突堤にのちに設けられたハーバーレーダーも今はなく、平成9年に大阪港咲洲トンネル出入口が設けられている。いまは中央突堤から見る夕陽の美しさが有名で、少し北側の水面には、コペンハーゲン港との文化交流の一環で贈られたマーメイド像が設置されている。,,,,,築港大桟橋,,,,,,文化・観光/大阪の昔と今
271004,,大阪府,大阪市,天保山の燈明台,テンポウザンノトウミョウダイ,,,港区築港3丁目2,,34.6581031,135.4333652,,,,,,,上段の写真：明治5年(1872)頃撮影・中段の写真：平成23年撮影・下段の写真：昭和17年撮影 ◇◇ 江戸時代、安治川の川底を浚渫した際、その土砂を積み上げて防波堤を築き、これを天保山と呼んだ。幕末、ロシアの軍艦の到来に一時砲台が置かれ、開港後、明治5年には英国人技師ブラントンの設計で木造四角形の燈明台が建設点灯された。明治21年には天保山遊園が開園して一帯は行楽地として賑わい、灯台は明治27年に木造六角形に改築され、43年まで点灯されていた。のち昭和32年天保山公園が開園するが、かつて20mほどあった天保山は、いま標高4.53mで日本一低い山として知られるようになった。,,,,,天保山の燈明台,,,,,,文化・観光/大阪の昔と今
271004,,大阪府,大阪市,桃山病院,モモヤマビョウイン,,,天王寺区筆ケ崎町2,,34.6633301,135.5267498,,,,,,,上段の写真：明治45年(1912)撮影・中段の写真：平成23年撮影・下段の写真：昭和17年撮影 ◇◇ 桃山病院は、明治29年4月に常設伝染病院として開設された。正面左は明治45年新築の本館、右は同40年新築の研究室などで、以降施設の近代化が進められる。大正10年、近代風木造建築に改築されるが、関東大震災による東京の被害状況から、昭和12年には鉄筋コンクリート造への全面建替えを完成させた。昭和21年には桃山市民病院も創設される。のち、平成5年に、桃山病院・市民病院とも市立総合医療センターに統合され、跡地は筆ヶ崎地区の整備事業によって、高層マンション・温泉フィットネス・スポーツ施設・こども広場などとなっている。,,,,,桃山病院,,,,,,文化・観光/大阪の昔と今
271004,,大阪府,大阪市,日本銀行大阪支店と淀屋橋,ニッポンギンコウオオサカシテントヨドヤバシ,,,北区中之島2丁目,,34.6934621,135.5008028,,,,,,,上段の写真：明治36～44年(1903～1911)撮影・中段の写真：平成23年撮影・下段の写真：昭和17年撮影 ◇◇ 日本銀行大阪支店は、明治36年1月に大川町（現北浜四）から中之島の現在地に新築移転した。辰野金吾設計による煉瓦・石造建築で、中央のドーム屋根が特徴的である。のち日本銀行大阪支店は保存されることになり、昭和57年に6階建新館の新築と旧館の保存修築工事が完成した。手前の淀屋橋は、明治18年淀川大洪水による流失後、同19年に幅9mの鉄柱木桁橋に復旧され、このとき大江橋と直線で結ばれた。明治44年に市電敷設のため拡幅・鉄橋化されるが、御堂筋の開通に際して、昭和10年に意匠設計の公募により、幅36.4mの花崗石張りの鉄骨鉄筋コンクリート造アーチ橋に架け替えられ、日銀とともに重厚な景観で中之島のシンボルとなっている。(日銀・淀屋橋とも重要文化財に指定されている),,,,,日本銀行大阪支店と淀屋橋,,,,,,文化・観光/大阪の昔と今
271004,,大阪府,大阪市,天満青物市場,テンマアオモノイチバ,,,北区天満3丁目南天満公園,,34.691897,135.5139798,,,,,,,上段の写真：昭和10年(1935)頃撮影・中段の写真：平成23年撮影・下段の写真：昭和17年撮影 ◇◇ 天満橋～天神橋間の大川北岸にあって繁盛した青物市場。「ねんねころいち　天満の市で」と子守唄にも歌われた。昭和6年中央卸売市場の開設により民営配給所となり、昭和10年に鉄骨スレート葺きの配給所の改築が完成し、戦時中は中央卸売市場の分場となるが、同20年の空襲で焼失した。昭和24年、天満卸売市場として旧東洋紡績天満工場跡地に移転し、跡地は、のち南天満公園として整備されている。,,,,,天満青物市場,,,,,,文化・観光/大阪の昔と今
271004,,大阪府,大阪市,心斎橋筋商店街,シンサイバシスジショウテンガイ,,,中央区心斎橋筋1丁目,,34.6721794,135.5013169,,,,,,,上段の写真：昭和4年(1929)撮影・中段の写真：平成23年撮影 ◇◇ 大阪を代表する商店街。明治前期までは心斎橋北詰以北が栄えたが、明治中頃から南へ繁盛の中心が移った。写真は、昭和はじめの心斎橋筋の風景で、手前の東西道路は周防町通、左奥には高層の大丸百貨店が見えている。その後、心斎橋筋商店街にはアーケードがかけられ、都心の最先端の商店街として賑わうようになる。平成2年に、現在の吊り下げ構造の新アーケードが完成した。また、周防町通は昭和10年に拡幅されており、いまではヨーロッパ通りの愛称で呼ばれ、景観整備も行われている。,,,,,心斎橋筋商店街,,,,,,文化・観光/大阪の昔と今
271004,,大阪府,大阪市,凌雲閣,リョウウンカク,,,北区茶屋町1・2,,34.7058028,135.4999135,,,,,,,上段の写真：明治22年(1889)撮影・中段の写真：平成23年撮影・下段の写真：昭和17年撮影 ◇◇ 明治時代は、高い建物が珍しかった。ミナミの眺望閣に対し、明治22年4月、北野茶屋町に木造9階建て高さ130尺(39m)の娯楽センター・凌雲閣が登場した。八角錘台で「北の九階」と呼ばれた展望台で、園内には池や丘などがある有楽園という遊園地である。その後、凌雲閣跡地は明治39年に梅田東小学校となり、平成元年に統合されるまで長い歴史を刻み、門のところに凌雲閣跡の碑と説明板が設置されていた。なお平成23年から、旧学校敷地と隣地をあわせ、東西道路の拡幅などの土地区画整理事業が着手されている。,,,,,凌雲閣,,,,,,文化・観光/大阪の昔と今
271004,,大阪府,大阪市,天王寺公園,テンノウジコウエン,,,天王寺区茶臼山町5,,34.6487479,135.5109022,,,,,,,上段の写真：明治42年(1909)撮影・中段の写真：平成23年撮影・下段の写真：昭和17年撮影 ◇◇ 明治36年に開催された第5回内国勧業博覧会会場跡地を利用して、明治42年12月、市立2番目の公園として東側高地部を天王寺公園として開設、45年に西側低地部に拡張した。勧業博の美術館・日本庭園・温室・洋式花壇が公園内施設として活用され、大正4年には西側に市立動物園も開園した。その後、昭和のはじめに住友家から慶沢園・茶臼山の寄付を受け、昭和11年に市立美術館が開館した。昭和62年には公園地下に駐車場を建設し、平成2年、公園の再整備にあわせ有料化された。,,,,,天王寺公園,,,,,,文化・観光/大阪の昔と今
271004,,大阪府,大阪市,愛日小学校,アイジツショウガッコウ,,,中央区北浜4丁目3,,34.6913201,135.5002302,,,,,,,上段の写真：平成10年(1998)撮影・中段の写真：平成23年撮影・下段の写真：昭和17年撮影 ◇◇ 愛日小学校は、それまでの明治29年建築の御殿づくりの木造校舎から建替えられて、昭和4年に、鉄筋コンクリート造3階建プール付きの新校舎が完成した。のち平成2年に、集英小学校と統合して開平小学校が開校したのに伴い愛日小学校は閉校となり、大阪市関連の施設に利用される。その後、平成20年に、御堂筋沿いの民地等とあわせた市街地再開発事業により、三井住友海上淀屋橋ビル・淀屋橋三井ビルディングの2棟一体の、鉄骨鉄筋コンクリート造16階建商業施設・オフィスビル「淀屋橋odona」が建設された。,,,,,愛日小学校,,,,,,文化・観光/大阪の昔と今
271004,,大阪府,大阪市,船場尋常小学校,センバジンジョウショウガッコウ,,,中央区安土町3丁目1,,34.6846301,135.50307,,,,,,,上段の写真：大正4年(1915)頃撮影・中段の写真：平成23年撮影・下段の写真：昭和17年撮影 ◇◇ 明治5年創立の堵西小学校と、同6年創立の中船場小学校が同18年に合併して、同20年に船場尋常小学校となった。写真は大正4年に改築した新校舎で、モダンな外観が評判になった。その後、昭和17年に愛日小学校に合併した。のち跡地に、昭和40年市立安土町駐車場(地上9階・地下3階・450台)が建設された。さらに、平成13年に15階建のヴィアーレ大阪・コーシャハイツ安土町、地下3階の安土町駐車場が併設された施設に建て替えられている。,,,,,船場尋常小学校,,,,,,文化・観光/大阪の昔と今
271004,,大阪府,大阪市,中央公会堂,チュウオウコウカイドウ,,,北区中之島1丁目1,,34.6935998,135.5040597,,,,,,,上段の写真：昭和13年(1938)撮影・中段の写真：平成23年撮影・下段の写真：昭和17年撮影 ◇◇ 赤レンガの壁面、ドーム型の屋根、円窓など華麗な装飾に富んだネオルネサンス様式の建物。株仲買人の岩本栄之助氏の寄付により、大正7年11月に完成した。開館以来、中央公会堂は、近代大阪の歴史に残る様々な催しの舞台となってきた。その後、老朽化が進んで一時取り壊しの議論も出るが、昭和63年に永久保存が決定され、市民募金も取り組まれた。公会堂としてより一層活用できるよう、耐震補強・バリアフリー化や、建設後の改変個所を当初の姿に復元するなどの、保存・再生工事が平成14年に完成、大阪の文化のシンボルとして甦り、重要文化財にも指定された。,,,,,中央公会堂,,,,,,文化・観光/大阪の昔と今
271004,,大阪府,大阪市,北市民館,キタシミンカン,,,北区天神橋6丁目4,,34.7101801,135.5116298,,,,,,,上段の写真：大正10年(1921)撮影・中段の写真：平成23年撮影・下段の写真：昭和17年撮影 ◇◇ 大正10年6月、天六交差点東側に開設された鉄筋コンクリート造4階建て、地域社会の福祉を図る公設セツルメント。初代館長志賀志那人の実践的運営により、大阪市社会事業の拠点となった。その後、ツタで覆われた外観がシンボルとなっていた。跡地には平成13年に、大阪市住宅供給公社・民間施設との合築により、市立住まい情報センターが建設された。地下鉄天神橋筋六丁目駅と直結し、住情報プラザ・住まいのミュージアム大阪くらしの今昔館・子育ていろいろ相談センターなどが併設されている。,,,,,北市民館,,,,,,文化・観光/大阪の昔と今
271004,,大阪府,大阪市,市営堀川住宅,シエイホリカワジュウタク,,,北区扇町2丁目,,34.7053446,135.5078838,,,,,,,"上段の写真：大正11年(1922)撮影・中段の写真：平成23年撮影・下段の写真：昭和17年撮影 ◇◇ 昭和初期の住宅需要増大とインフレによる建築資材高騰は、貸家業者の建築手控えとなり住宅難が深刻化した。市営住宅はこれに対応するもので、大正8年～15年に6ヵ所1,285戸を建設した。市営堀川住宅は、大正11年度に木造2階建194戸が建設されたが、昭和20年の戦災でほとんどが被災して、仮設住宅が建設された。平成元年度に、扇町地区の整備にあわせ、14階建の市営扇町住宅として敷地を集約化して建替えられ、残る住宅敷地は扇町公園に編入整備された。",,,,,市営堀川住宅,,,,,,文化・観光/大阪の昔と今
271004,,大阪府,大阪市,本庄公設市場,ホンジョウコウセツイチバ,,,北区中崎１丁目6,,34.7070081,135.506343,,,,,,,上段の写真：大正8年(1919)頃撮影・中段の写真：平成23年撮影・下段の写真：昭和17年撮影 ◇◇ 公設市場は、市民の生活費軽減と小売制度の改善を図るもので、大阪市は、米騒動の以前に4ヵ所を設置した。本庄公設市場は、空堀・築港・西野田・木津各公設市場とともに大正8年4月に開設された。その後昭和49年に、上階に住宅供給公社の中崎コーポを併設した12階建施設に建替えられた。のち公設市場は、ナベルの愛称でスーパーと店舗からなる新しい市場に生まれ変わっている。,,,,,本庄公設市場,,,,,,文化・観光/大阪の昔と今
271004,,大阪府,大阪市,水晶橋と大阪控訴院,スイショウバシトオオサカコウソイン,,,北区西天満2丁目,,34.6945223,135.5030174,,,,,,,上段の写真：昭和4年(1929)撮影・中段の写真：平成23年撮影・下段の写真：昭和17年撮影 ◇◇ 水晶橋は、もともとは橋ではなく正式には堂島川可動堰といい、河川の浄化対策として昭和4年3月に完成した。幅員9ｍの広い歩行者専用橋で、昭和57年に改装にあわせて法律上も橋とされ、翌年からはライトアップもされて、中之島の夜間景観を演出している。背景の赤煉瓦の大阪控訴院は、地方裁判所・区裁判所との合同庁舎で大正5年に竣工し、この頃は高い護岸もなく、河川と河岸が一体の親水空間を形成している。その後、地盤沈下と高潮被害を経て現在の護岸となり、水晶橋も桁下が低くなっている。控訴院は、のち大阪高等裁判所と名称が変わり、昭和49年に、新しい11階建の大阪高等・地方・家庭裁判所合同庁舎として建替えられた。,,,,,水晶橋と大阪控訴院,,,,,,文化・観光/大阪の昔と今
271004,,大阪府,大阪市,大川町線（土佐堀通）,オオカワチョウセン（トサボリドオリ）,,,中央区北浜4丁目,,34.6925266,135.4994015,,,,,,,上段の写真：昭和10年(1935)頃撮影・中段の写真：平成23年撮影・下段の写真：昭和17年撮影 ◇◇ 第1次都市計画事業で、淀屋橋西側の土佐堀川沿いに整備された大川町線で、街路樹が並ぶ歩道のほか、グリーンベルトが整備されている。沿道には、美津濃のビル(左手前)や住友銀行本店ビル、肥後橋交差点の大同生命ビルが見える。現在は、当時走っていた市電は廃止され、土佐掘川の護岸も高くなっている。また、昭和37年建築の12階建の住友ビル(旧称：新住友ビル)や、平成5年に建替えられた19階建の大同生命大阪本社ビルなど、沿道建物も大きく変化している。,,,,,大川町線（土佐堀通）,,,,,,文化・観光/大阪の昔と今
271004,,大阪府,大阪市,堺筋と三越百貨店,サカイスジトミツコシヒャッカテン,,,中央区高麗橋1丁目7,,34.6892863,135.5067115,,,,,,,上段の写真：大正末期頃撮影・中段の写真：平成23年撮影・下段の写真：昭和17年撮影 ◇◇ 商家の古い蔵が散在する瓦屋根の中に、大正9年に完成した8階建ての三越百貨店が威容を誇っている。明治45年に市電道路として拡幅された堺筋は、御堂筋ができる以前の大阪を代表する幹線道路であった。その後、堺筋沿道には高層ビルが建ち並び、昭和44年には地下鉄も開通する。平成7年の大震災によって、三越は大きな被害を受け、売り場を縮小して営業していたが、平成17年に閉店した。跡地には、平成21年に54階建の超高層マンション・The Kitahamaが建設されている。,,,,,堺筋と三越百貨店,,,,,,文化・観光/大阪の昔と今
271004,,大阪府,大阪市,桜宮橋,サクラノミヤバシ,,,北区天満橋1丁目,,34.6976779,135.5224365,,,,,,,上段の写真：昭和42年(1967)撮影・中段の写真：平成23年撮影・下段の写真：昭和17年撮影 ◇◇ 昭和5年9月に完成した桜宮橋は、第1次都市計画事業によって架けられた、橋長188メートルの戦前では日本最大のアーチ橋。建築家の武田五一が意匠指導。銀色の塗装を施したことで銀橋と呼ばれ、大川と桜之宮公園の景観と一体化した美しい姿を見せている。のち平成19年に、道路拡幅にあわせて、上流側に新桜宮橋が建設された。建築家の安藤忠雄の設計による新桜宮橋は、旧橋より橋長が長いが高さを合わせたデザインとなっている。,,,,,桜宮橋,,,,,,文化・観光/大阪の昔と今
271004,,大阪府,大阪市,明治の渡辺橋,メイジノワタナベバシ,,,北区堂島浜1丁目・中之島２丁目,,34.694471,135.4958704,,,,,,,上段の写真：明治43年(1910)撮影・中段の写真：平成23年撮影・下段の写真：昭和17年撮影 ◇◇ 市電の南北線建設に伴って、明治41年に架け替え工事が完成し、20年後の昭和2年まで市電道路を支えた。南詰東側の建物は大阪郵便電信局。昭和2年に、幅27mの中央部が鋼アーチのネオルネッサンス様式の華麗な橋に架け替えられた。その後の地盤沈下もあり、地下鉄工事にあわせ、昭和41年に、肥後橋とともに幅29mの鋼床版桁橋に架け替えられた。郵便電信局のところは、のち昭和33年に新朝日ビル(フェスティバルホール、大阪グランドホテル)となった。さらに、平成23年現在、39階建の中之島フェスティバルタワーとして建替中である。,,,,,明治の渡辺橋,,,,,,文化・観光/大阪の昔と今
271004,,大阪府,大阪市,明治の天満橋,メイジノテンマバシ,,,中央区大手前1丁目、北区天満1丁目,,34.6911768,135.5175142,,,,,,,上段の写真：明治20～30年代頃撮影・中段の写真：平成23年撮影・下段の写真：昭和17年撮影 ◇◇ 天満橋は、明治18年の淀川大洪水で木橋が流失した後、同21年12月鉄橋に架け替えられた。幅員11m・橋長215mで、主要鉄材はドイツ製であったが、高欄・照明柱・橋名額は国産品が使われた。明治44年にすぐ上流側に市電の専用橋が架けられるが、昭和10年、両橋は第1次都市計画事業によって幅員22mの重厚な鋼桁橋に架換えられる。その後、在来の天満橋の上に2階建の形で新天満橋が増設された。天満橋の北から高架になり、天満橋をまたぎ谷町筋に至る、全橋長410mのこの高架橋は天満重ね橋とも呼ばれている。,,,,,明治の天満橋,,,,,,文化・観光/大阪の昔と今
271004,,大阪府,大阪市,架け替え前の千代崎橋,カケカエマエノチヨザキバシ,,,西区千代崎１丁目,,34.6733815,135.4810071,,,,,,,上段の写真：明治中期頃撮影・中段の写真：平成23年撮影・下段の写真：昭和17年撮影 ◇◇ 千代崎橋は、木津川に架かる橋で、木橋が明治18年の大洪水で流失したあとに架けられた、鉄柱の橋脚をもつ木桁橋。流失前の木橋は帆船を通すため中央部が引込み式の桁になった珍しい構造の橋であった。昭和2年、第1次都市計画事業によって、幅12.8m・橋長80.6mの鋼鈑桁橋に架け替えられる。その後千代崎橋は、昭和31年高潮対策により嵩上げされた。,,,,,架け替え前の千代崎橋,,,,,,文化・観光/大阪の昔と今
271004,,大阪府,大阪市,鉄橋になった天神橋,テッキョウニナッタテンジンバシ,,,北区天神橋1丁目、中之島１丁目,,34.6911823,135.5117861,,,,,,,上段の写真：大正後期撮影・中段の写真：平成23年撮影・下段の写真：昭和17年撮影 ◇◇ 明治18年の大洪水で流失し、明治21年12月に完成した鉄橋。アーチ型の上部構造は、橋脚間が66メートルもあり、当時の人々を驚かせたという。中之島の剣先が大正年間に天神橋まで伸びたため、天神橋は堂島川・土佐堀川の2川に架かる。対岸は天満青物市場。昭和9年、第1次都市計画事業によって、幅員22m・橋長211mの鋼2ヒンジアーチ橋が完成した。昭和62年には、自転車用のらせん形式の剣先スロープを設けるとともに、天神橋の美装化が行われた。,,,,,鉄橋になった天神橋,,,,,,文化・観光/大阪の昔と今
271004,,大阪府,大阪市,石造りの心斎橋,イシヅクリノシンサイバシ,,,中央区南船場3丁目、心斎橋筋1丁目,,34.6751194,135.5013203,,,,,,,上段の写真：昭和初期頃撮影・中段の写真：平成23年撮影・下段の写真：昭和17年撮影 ◇◇ 長堀川をまたぐ心斎橋の美しい石造りのアーチ、鉄柱に支えられたガス灯は、西欧風のデザインで、架け替えは明治42年11月。明治・大正・昭和の各時代、大阪を代表する繁華街のシンボルとなった(遠景に大正11年に完成した旧長堀高島屋ビルが見える)。のち昭和39年に、長堀川が埋め立てられたのに伴って、心斎橋は歩道橋となるが、心斎橋を惜しむ声を受けて、旧橋の石造の高欄がそのまま歩道橋の高欄として利用された。さらに平成9年、クリスタ長堀の整備に際し、地下街の出入口に一部が移設されている。,,,,,石造りの心斎橋,,,,,,文化・観光/大阪の昔と今
271004,,大阪府,大阪市,架け替え後の四つ橋,カケカエゴノヨツバシ,,,西区新町1丁目、北堀江1丁目,,34.6751445,135.4977481,,,,,,,上段の写真：昭和9年(1934)撮影・中段の写真：平成23年撮影・下段の写真：昭和17年撮影 ◇◇ 四つ橋は、西横堀川と長堀川が交差するところに架けられていた、4つの橋(上繋橋・下繋橋・吉野屋橋・炭屋橋)を総称していう。市電の走る西側の西長堀橋とともに、第1次都市計画事業によって昭和2年～3年に架け替えられた。昭和9年の写真で、対岸に電気科学館の建設が始まり工事用タワーが見える。江戸時代から市民に親しまれた四つ橋も、昭和46年に西横堀川が、同48年に長堀川が完全に埋め立てられて姿を消した。旧西横堀川の阪神高速道路高架下は駐車場、旧長堀通は長堀通となって、今では、長堀通の緑地帯部分に四ツ橋跡の顕彰碑が建つ。,,,,,架け替え後の四つ橋,,,,,,文化・観光/大阪の昔と今
271004,,大阪府,大阪市,鉄橋の高麗橋,テッキョウノコウライバシ,,,中央区高麗橋1丁目,,34.6893683,135.5093539,,,,,,,上段の写真：明治3年(1870)撮影・中段の写真：平成23年撮影・下段の写真：昭和17年撮影 ◇◇ 高麗橋は江戸時代、西日本の街道の起点であった。大阪で最初の鉄橋として、明治3年9月に完成した高麗橋。欄干の柱頭にガラスの灯籠が設けられ、鉄製の橋杭も美しく、通称くろがね橋といわれて見物客でにぎわった。明治9年には、大阪府里程元標が設置された。その後、60年にわたって利用された鉄橋が、昭和4年に鉄筋コンクリートのアーチ橋に架け換えられ、高欄の柱には青銅製の擬宝珠がつけられている。現在、橋の東詰に橋詰広場がつくられて由来碑が建てられ、里程元標の碑もある。,,,,,鉄橋の高麗橋,,,,,,文化・観光/大阪の昔と今
271004,,大阪府,大阪市,福崎焼却場,フクザキショウキャクジョウ,,,港区福崎3丁目1,,34.654451,135.4588944,,,,,,,上段の写真：明治36年(1903)撮影・中段の写真：平成23年撮影・下段の写真：昭和17年撮影 ◇◇ 明治36年に、尻無川下流の福崎町に建設されたごみ焼却場。規模は小さく、実験焼却の域を出さなかったが、この実績が、大量処理能力を持つ木津川焼却場の建設につながり、福崎焼却場は大正5年に廃止された。福崎焼却場があったところは、平成23年現在、杉村倉庫福崎倉庫や、メーカーの物流センター・商品センターなどとなっている。,,,,,福崎焼却場,,,,,,文化・観光/大阪の昔と今
271004,,大阪府,大阪市,木津川焼却場,キヅガワショウキャクジョウ,,,大正区南恩加島1丁目11,,34.6349688,135.4757264,,,,,,,上段の写真：昭和9年(1934)撮影・中段の写真：平成23年撮影・下段の写真：昭和17年撮影 ◇◇ 大正5年、大量ごみ焼却場として完成し、同時に福崎焼却場と明治40年完成の長柄焼却場は廃止された。大正7年に送風式炉を増設して処理施設の充実を図り、残量は港の埋立地に処分した。写真は昭和4年建設の第4焼却場。のち昭和55年に、大正工場(300トン/日)が完成したことにより、大阪市は可燃性ごみの全量焼却体制を達成した。さらに、同63年には破砕施設が完成し、粗大ごみを破砕したうえで焼却している。,,,,,木津川焼却場,,,,,,文化・観光/大阪の昔と今
271004,,大阪府,大阪市,寝屋川焼却場,ネヤガワショウキャクジョウ,,,城東区放出西2丁目2,,34.6948599,135.5553101,,,,,,,上段の写真：昭和30年(1935)撮影・中段の写真：平成23年撮影・下段の写真：昭和35年撮影 ◇◇ 焼却設備の第2次拡張事業として着手、放出町寝屋川南岸に、昭和4年に建設したごみ焼却場。強圧送風炉16基を備えるもので、この焼却場の完成により、大阪市の1日焼却能力は75万キロとなった。のち、旧式となった寝屋川工場の代替として、昭和40年に、茨田焼野町に城東工場が完成し、寝屋川工場は廃止される。昭和50年、その跡地に放出小学校が開校し、平成15年には、新館校舎施設が完成している。,,,,,寝屋川焼却場,,,,,,文化・観光/大阪の昔と今
271004,,大阪府,大阪市,市立工業研究所,シリツコウギョウケンキュウショ,,,北区扇町2丁目1,,34.7044436,135.5102176,,,,,,,上段の写真：昭和30年(1955)頃撮影・中段の写真：平成23年撮影・下段の写真：昭和17年撮影 ◇◇ 市立工業研究所は、工業の科学的研究と工業技術の高度化を図る目的で、大正5年11月に、北区北野牛丸町に開設したが、大阪駅の拡張のため、12年に北扇町に新築移転した。必要に応じて企業の設備利用の便を図り、委託研究も行い、中小企業の多い大阪の産業界に大きく貢献してきた。その後、昭和57年に森之宮に新築移転し、跡地には、公有地の有効活用を図るため、旧交通局病院跡地などとあわせた土地信託事業によって、平成9年、扇町キッズパーク(キッズプラザ大阪、関西テレビ)が開業している。,,,,,市立工業研究所,,,,,,文化・観光/大阪の昔と今
271004,,大阪府,大阪市,大阪商工会議所,オオサカショウコウカイギショ,,,北区堂島3丁目1,,34.6947295,135.4921117,,,,,,,上段の写真：昭和35年(1960)撮影・中段の写真：平成23年撮影・下段の写真：昭和39年撮影 ◇◇ 大正14年12月に新築された大阪商業会議所は、ルネサンス様式で鉄筋コンクリート造り。2年後の昭和2年に商工会議所法が公布されて、大阪商工会議所となり、昭和8年2月には、3階部分が増築された。その後、昭和43年に、内本町橋詰町に新築移転された。跡地は、昭和57年着工の8階建の大阪電話局ビルの上に増築したという、19階建のNTTテレパーク堂島第2ビルが、平成14年に完成している。,,,,,大阪商工会議所,,,,,,文化・観光/大阪の昔と今
271004,,大阪府,大阪市,赤レンガの大阪株式取引所,アカレンガノオオサカカブシキトリヒキショ,,,中央区北浜1丁目8,,34.6913101,135.5072802,,,,,,,上段の写真：大正末期撮影・中段の写真：平成23年撮影・下段の写真：昭和17年撮影 ◇◇ 明治11年に開業し、明治27年に北浜最初の洋館に建替え、以降増築を重ねた大阪株式取引所。北浜交差点の南東角に位置し、煉瓦造の建物が商都大阪の活力を誇った。写真は、大正末期の市街地の風物をよく映して興味深い。明治期の建物老朽化のため、昭和10年4月、円形ドームをもつ鉄筋コンクリート造花崗岩貼り6階建の新市場棟に建替えられた。昭和18年日本証券取引所大阪支所、同24年大阪証券取引所となる。のち、老朽化と立会場機能不要化から、平成16年に24階建のビルに建替えられたが、北浜のランドマークであった旧証券ビルの外観は保存されている。,,,,,赤レンガの大阪株式取引所,,,,,,文化・観光/大阪の昔と今
271004,,大阪府,大阪市,市立大阪商科大学,シリツオオサカショウカダイガク,,,天王寺区烏ヶ辻2丁目6,,34.6573502,135.5250102,,,,,,,上段の写真：昭和3年(1928)頃撮影・中段の写真：平成23年撮影・下段の写真：昭和17年撮影 ◇◇ 昭和3年3月、市立高等商業学校が大阪商科大学に昇格、同年大阪市経済研究所を設置した。翌4年から貿易・金融・経営および全国初の市政科を開設し発足したが、明治44年建築の烏ヶ辻校舎は狭かったため、昭和8年に、杉本町に学舎を新築し移転した(昭和24年大阪市立大学となる)。跡地には、昭和17年に大阪逓信病院が開設され、同27年電電公社の発足に伴い公社の大阪逓信病院となる。その後、平成2年に9階建の新病院に建替えられ、平成11年には、NTT西日本大阪病院と改称された。,,,,,市立大阪商科大学,,,,,,文化・観光/大阪の昔と今
271004,,大阪府,大阪市,拡幅後の御堂筋・梅田新道,カクフクゴノミドウスジ・ウメダシンミチ,,,北区西天満4丁目・曽根崎2丁目,,34.6974892,135.5008291,,,,,,,上段の写真：昭和5年(1930)頃撮影・中段の写真：平成23年撮影・下段の写真：昭和17年撮影 ◇◇ 御堂筋の建設は、市電道路を除けば市内最初の幹線街路の建設であった。その意義は道路の機能向上ではなく、快適な都市空間の創造にあった。堂ビルから北を望む写真で、正面奥に見える梅田阪急ビル前から大江橋北詰までは、御堂筋の最初の完成区間で昭和2年に完成し、街路樹はイチョウではなくプラタナスが植えられた。その後昭和45年には、この地点から右手に分岐して新御堂筋が開通し、現在、梅田阪急ビルは超高層に建替中、西側に大阪駅前第3・4ビル、東側にフェニックスタワーなどのビルが建つ。　,,,,,拡幅後の御堂筋・梅田新道,,,,,,文化・観光/大阪の昔と今
271004,,大阪府,大阪市,難波駅前の地下鉄工事,ナンバエキマエノチカテツコウジ,,,中央区難波3丁目,,34.6656701,135.5005165,,,,,,,上段の写真：昭和8年(1933)頃撮影・中段の写真：平成23年撮影・下段の写真：昭和17年撮影 ◇◇ 地下鉄の露天掘り工事では、長さ20メートルの鋼矢板を打ち込んだため、その騒音・振動は大変なものであった。写真は心斎橋−難波間の延長工事で、昭和8年に着工し、同10年10月に開通した。さらに、同12年に御堂筋が開通して、都心を南北に貫く道路・地下鉄の大動脈が完成した。以降、御堂筋沿道にはビルが建ち並んでくるが、街は変化を続けており、写真右側の南街会館(昭和28年開場)は平成18年東宝南街ビルに建替えられ、写真左側にある建築家の村野藤吾設計の新歌舞伎座(昭和33年開場)は平成21年に閉場したが、平成23年現在、特徴ある連続唐破風のひさしの姿を残している。,,,,,難波駅前の地下鉄工事,,,,,,文化・観光/大阪の昔と今
271004,,大阪府,大阪市,大江橋の建設,オオエバシノケンセツ,,,北区西天満2丁目,,34.6947701,135.5011667,,,,,,,上段の写真：昭和8年(1933)頃撮影・中段の写真：平成23年撮影・下段の写真：昭和17年撮影 ◇◇ 淀屋橋と一対をなす南欧中世紀風のデザインで、橋脚上にバルコニーがつくられている。鉄筋コンクリートアーチ構造、外装は花崗岩貼りの壮麗な橋の建設が着々と進んでいる。大江橋は、淀屋橋とともにデザイン設計が公募されたもので、昭和10年4月に完成した。のち、昭和40年に、大江橋の上に堂島川を通る阪神高速道路環状線が建設され、家並みもビル街に変わっているが、大江橋は完成当時と変わらず、平成20年淀屋橋ともに重要文化財に指定された。堂島川の水質も改善されてきて、水都大阪の趣を保っている。,,,,,大江橋の建設,,,,,,文化・観光/大阪の昔と今
271004,,大阪府,大阪市,地下鉄心斎橋駅,チカテツシンサイバシエキ,,,中央区心斎橋筋1丁目,,34.6740633,135.5003979,,,,,,,上段の写真：昭和9年(1934)頃撮影・中段の写真：平成23年撮影 ◇◇ 地下鉄の各駅は、それぞれ違った様式にデザインされ、シャンデリアや壁面タイルの色も変えられた。当初は1両で走ったが、ホームは10両編成に対応できるよう計画され、エスカレーターもある豪華さに人々は目を見はった。心斎橋駅は昭和8年5月の開業時は仮駅で、写真の本駅は同9年に開業した。現在、御堂筋線は10両編成で運転されており、また、平成9年に開通した長堀鶴見緑地線心斎橋駅が接続している。,,,,,地下鉄心斎橋駅,,,,,,文化・観光/大阪の昔と今
271004,,大阪府,大阪市,地下鉄梅田駅地上入口,チカテツウメダエキチジョウイリグチ,,,北区曽根崎2丁目,,34.7009848,135.4992809,,,,,,,上段の写真：昭和8年(1933)頃撮影・中段の写真：平成23年撮影 ◇◇ 昭和初期、明るい初夏の日ざしに影を映す街路樹、和服姿の家族づれが、足どりも軽く梅田駅の入口へ向かう。道路の下を快走する地下鉄は、大阪の将来に不可欠の交通機関として計画され、半世紀後の今日、文字どおり都市交通の主役となった。昭和8年の開通間もない、写真の梅田駅出入口は南向きに撮られているが、同じ場所の現在の新阪急ビル前の地下街・ホワイティうめだの出入口は、当時とは出入口が南北反対向きになっている。,,,,,地下鉄梅田駅地上入口,,,,,,文化・観光/大阪の昔と今
271004,,大阪府,大阪市,完成した御堂筋,カンセイシタミドウスジ,,,中央区南船場3丁目,,34.6758704,135.5003474,,,,,,,"上段の写真：昭和12年(1937)撮影・中段の写真：平成23年撮影・下段の写真：昭和17年撮影 ◇◇ 阪急梅田駅前から南海難波駅前までの延長4,027メートル、幅員43.6メートルの御堂筋は、地下鉄開通4年後の昭和12年5月に全長が完成した。4列のいちょう並木としゃれた街灯、グリーンベルトに区分された高速車道と緩速車道—。都心を南北に貫く御堂筋は、近代大阪のシンボルとなった。写真は長堀通以北の景観。昭和45年、都心の幹線道路の一方通行化によって、御堂筋は南行一方通行となっている。",,,,,完成した御堂筋,,,,,,文化・観光/大阪の昔と今
271004,,大阪府,大阪市,完成した御堂筋とビル群,カンセイシタミドウスジトビルグン,,,中央区今橋3丁目,,34.6910217,135.501259,,,,,,,上段の写真：昭和12年(1937)頃撮影・中段の写真：平成23年撮影・下段の写真：昭和17年撮影 ◇◇ 御堂筋の高麗橋通付近から北を望む写真で、中央一番高いビルが昭和6年竣工の煉瓦造7階建の日本生命本店1号館、手前が2号館、左奥には大阪市庁舎も見える。瓦屋根の商家も見える中で、すでに近代大阪のビジネス街の中心としての景観が生まれてきている。その後、昭和13年に1号館を建替えて、鉄筋コンクリート造7階建の本館第1期が完成した。その後、昭和29年に本館の外壁を御影石貼りとし、同34年に煉瓦造の2号館を建替えて9階建の南館を建築、さらに、同37年には、本館北側に増築して白亜の重厚な本館全体が完成した。,,,,,完成した御堂筋とビル群,,,,,,文化・観光/大阪の昔と今
271004,,大阪府,大阪市,建設進む天守閣,ケンセツススムテンシュカク,,,中央区大阪城,,34.6871593,135.5258423,,,,,,,"上段の写真：昭和5年(1930)頃撮影・中段の写真：平成23年撮影・下段の写真：昭和17年撮影 ◇◇ ほぼ鉄骨が組みあがって、全容を見せはじめた天守閣。総重量1万1,000トンと推計される天守閣の重量が、石垣にほとんど負担をかけないという特殊工法が使われ、建築学的にも注目を集めた。大阪城天守閣は、市民の募金をもとに、大坂夏の陣図屏風などを参考に豊臣期の姿を復興、昭和6年11月に、鉄骨鉄筋コンクリート造8階建天守閣の再建が完成した。のち、老朽化が進んだため、耐震補強工事や外観のリニューアル、車椅子用エレベーターの新設など、平成の大改修と呼ばれる全面改修が行われ、平成9年3月に完成した。",,,,,建設進む天守閣,,,,,,文化・観光/大阪の昔と今
271004,,大阪府,大阪市,電気科学館,デンキカガクカン,,,西区新町1丁目4,,34.6756355,135.4972832,,,,,,,上段の写真：昭和12年(1937)撮影・中段の写真：平成23年撮影・下段の写真：昭和17年撮影 ◇◇ 電気事業市営10周年を記念し、科学知識の向上と電気利用の普及を目的に、昭和12年3月、四つ橋に市立電気科学館が完成、最新の技術を導入した展示と星の動きをドームに映すプラネタリウムが人気を博した。1階には市電の店という電化製品の陳列所がつくられた。平成元年、中之島に新たに市立科学館が開設されることになって、電気科学館は閉鎖となり、その後は市立中央図書館の建替えに伴い、平成4～8年仮設図書館として利用後、平成10年に取り壊された。跡地には、ホワイトドームプラザというホテルが建設されている。,,,,,電気科学館,,,,,,文化・観光/大阪の昔と今
271004,,大阪府,大阪市,大阪市電気局庁舎,オオサカシデンキキョクチョウシャ,,,西区九条南1丁目12,,34.6699254,135.4739275,,,,,,,上段の写真：昭和12年(1937)撮影・中段の写真：平成23年撮影・下段の写真：昭和17年撮影 ◇◇ 昭和5年3月、西区境川に完成した大阪市電気局庁舎、鉄筋コンクリート5階建ての重厚な建物である。昭和17年に、電気局の配電事業が関西配電に移管され、昭和20年交通局と改称されて交通局庁舎となった。そののち、大阪ドームを核とする岩崎橋地区土地区画整理事業の施行に伴って、老朽化した庁舎を建替えることとし、平成16年、庁舎の隣に鉄骨鉄筋コンクリート造17階建の交通局新庁舎を建て、旧庁舎跡には、平成19年に鉄筋コンクリート造8階建の消防局新庁舎・西消防署併設施設を建設している。,,,,,大阪市電気局庁舎,,,,,,文化・観光/大阪の昔と今
271004,,大阪府,大阪市,市立美術館,シリツビジュツカン,,,天王寺区茶臼山町1,,34.6503615,135.5104386,,,,,,,上段の写真：昭和11年(1936)撮影・中段の写真：平成23年撮影・下段の写真：昭和17年撮影 ◇◇ 市立美術館の開設は大正年間に計画され、住友家から寄付を受けた天王寺茶臼山本邸の敷地に建設することになった。昭和2年度に着工したが、財政事情や室戸台風のため工期が延び、同11年5月に完成開館し、落成記念展は帝国美術院展であった。地上3階・地下2階からなる本館地下には、付設の美術研究所がある。その後、昭和54年に全面改修整備を行い、平成4年、正面玄関前広場の地下部分に地下展覧会室を増設し、同17年には人にやさしいまちづくり事業によるスロープ整備などを行っている。,,,,,市立美術館,,,,,,文化・観光/大阪の昔と今
271004,,大阪府,大阪市,大阪歌舞伎座,オオサカカブキザ,,,中央区千日前2丁目10,,34.6666801,135.5026401,,,,,,,上段の写真：昭和7年(1932)頃撮影・中段の写真：平成23年撮影・下段の写真：昭和17年撮影 ◇◇ 大阪歌舞伎座は、正面に巨大な丸窓のついた7階建、3、000人収容の近代劇場で、昭和7年10月のこけら落とし興行は、中村雁治郎・福助・魁車に東京の市村羽左衛門らが加わる東西大歌舞伎で大阪市中をわかせた。歌舞伎の上演とともに、6階にはアイススケート場を併設した。その後、昭和33年に、御堂筋に新歌舞伎座が開場して、歌舞伎座は閉鎖・改装されて、千日デパートが開業するが、同47年の千日デパート火災の惨事後に取り壊される。同59年にプランタンなんばが開業、業態転換ののち平成12年閉店し、同13年にビックカメラが開店した。,,,,,大阪歌舞伎座,,,,,,文化・観光/大阪の昔と今
271004,,大阪府,大阪市,大軌ビルディング,ダイキビルディング,,,天王寺区上本町6丁目1,,34.6655951,135.5200677,,,,,,,上段の写真：大正15年(1926)撮影・中段の写真：平成23年撮影・下段の写真：昭和17年撮影 ◇◇ 大正15年、上本町6丁目に完成した大阪電気軌道のターミナルビル。地下から3階までが三笠屋百貨店で、昭和11年に直営の大軌百貨店となる。その後、関急百貨店、昭和23年近鉄百貨店上本町店、同44年上本町近鉄百貨店と改称した。さらに昭和48年には、12階建の上本町ターミナルビル・上本町近鉄百貨店の増築整備が完成し、同60年には21階建の都ホテル大阪も開業した。さらに、平成22年、南側の上本町YUFURA(商業施設・オフィス・新歌舞伎座等)の開業にあわせて、百貨店の全館リニューアルも完成している。,,,,,大軌ビルディング,,,,,,文化・観光/大阪の昔と今
271004,,大阪府,大阪市,大丸とそごう百貨店,ダイマルトソゴウヒャッカテン,,,中央区心斎橋筋1丁目,,34.673479,135.5008042,,,,,,,上段の写真：昭和10年(1935) 頃撮影・中段の写真：平成23年撮影・下段の写真：昭和17年撮影 ◇◇ 大丸・そごうは、ともに心斎橋筋の代表的な老舗であるが、御堂筋に面して、大丸は、昭和8年に建築家のヴォーリズ設計の7階建の御堂筋側増築が完成、そごうは、同10年に建築家の村野藤吾設計の鉄骨鉄筋コンクリート造8階建の新館が完成。デザイン・色彩ともに対照的な百貨店ビルが壮麗な姿を競い、新しい都市景観をつくり出した。のち、そごう大阪店は、平成12年に閉店となり同15年取壊されたが、再生を図るため平成17年、14階建のそごう心斎橋本店を新築した。しかし、同21年に再び閉店となり、心斎橋におけるそごうの歴史を閉じ、大丸に売却され大丸心斎橋店北館となっている。,,,,,大丸とそごう百貨店,,,,,,文化・観光/大阪の昔と今
271004,,大阪府,大阪市,高島屋百貨店,タカシマヤヒャッカテン,,,中央区難波5丁目1,,34.6647125,135.5009821,,,,,,,上段の写真：昭和7年(1932)撮影・中段の写真：平成23年撮影・下段の写真：昭和17年撮影 ◇◇ 高島屋は、明治31年に大阪店を開き、心斎橋支店・長堀店を経て、昭和5年に、南海ビルディング(南海電鉄難波ターミナル)に進出、昭和7年には7階建ビル全体が完成し全館オープンした。以来、難波の高島屋として御堂筋正面の位置を占めている。そののち、昭和53～55年のなんばCITY開業、難波駅の改造などに伴う改装等を行ってきた。さらに、平成23年には、9階建の東館事務所を店舗に改装して増床している。,,,,,高島屋百貨店,,,,,,文化・観光/大阪の昔と今
271004,,大阪府,大阪市,新大阪ホテル,シンオオサカホテル,,,北区中之島3丁目2,,34.69328,135.49469,,,,,,,上段の写真：昭和10年(1935)撮影・中段の写真：平成23年撮影・下段の写真：昭和17年撮影 ◇◇ 市内最初の洋式ホテルは、明治初年に川口居留地内にできた外国人止宿所・自由亭ホテルが、同14年に中之島に支店を進出、後に大阪ホテルとなったのが草分けの時代。商都大阪の発展とともに本格的なホテルが要望され、昭和10年1月に、西の迎賓館といわれた鉄骨鉄筋コンクリート造8階建の新大阪ホテルが誕生した。のち、昭和48年に閉鎖し取り壊され、跡地は、昭和52年建築の13階建の住友中之島ビルとなっている。,,,,,新大阪ホテル,,,,,,文化・観光/大阪の昔と今
271004,,大阪府,大阪市,新世界通天閣と恵美須通,シンセカイツウテンカクトエビスドオリ,,,浪速区恵美須東1丁目,,34.6533222,135.5059731,,,,,,,上段の写真：大正9年～昭和初期撮影・中段の写真：平成23年撮影・下段の写真：昭和17年撮影 ◇◇ 明治45年7月にオープンした新世界・ルナパーク。そのシンボルである通天閣にネオンサインが輝き、恵美須通の鈴蘭灯に灯がともり、人々をひきつける盛り場に夜が訪れる。大正9年にライオン歯磨きのネオンが設置された。ルナパークは大正12年閉鎖され、跡地は興行街になる。当時日本一の高さを誇った通天閣は、昭和18年火災によって脚部が焼損し、鉄材の戦時供出のため、翌年解体されて姿を消す。そののち、新世界の商店主たちの熱意によって、昭和31年10月、東京タワーと同じ内藤多仲設計による、高さ103mの2代目通天閣が、初代の少し北側の位置に再建された。以来、新世界のランドマークとして親しまれつづけ、のち、平成13年にリニューアルされている。,,,,,新世界通天閣と恵美須通,,,,,,文化・観光/大阪の昔と今
271004,,大阪府,大阪市,道頓堀の夜景,ドウトンボリノヤケイ,,,中央区道頓堀1丁目,,34.6688814,135.5013055,,,,,,,上段の写真：昭和10年(1935)頃撮影・中段の写真：平成23年撮影 ◇◇ 道頓堀の夜景はミナミの象徴で、数ある大阪の歌でも最も多く登場する。「赤い灯 青い灯 道頓堀の…」ではじまる道頓堀行進曲は、昭和3年に生まれた。なかでも、その代表格が「グリコの看板」。道頓堀川の戎橋そばに、初めてグリコのネオン塔ができたのは昭和10年。高さ33mのネオン塔には、トレードマークのランナーとグリコの文字が浮かび、一躍ミナミの名物に。戦時中に鉄材供出で撤去され、昭和30年に再建されて、以来、何度か改装されながら、大阪・道頓堀風景のシンボルとして、なくてはならない存在となっている。,,,,,道頓堀の夜景,,,,,,文化・観光/大阪の昔と今
271004,,大阪府,大阪市,廃墟の大阪陸軍造兵廠跡,ハイキョノオオサカリクグンゾウヘイショウアト,,,中央区大阪城,,34.6873636,135.5320346,,,,,,,上段の写真：昭和20～23年頃撮影・中段の写真：平成23年撮影・下段の写真：昭和28年撮影 ◇◇ 夏草の生い茂る廃墟—陸軍兵器工場の巨大な基地であった、大阪陸軍造兵廠(大阪砲兵工廠)は、昭和20年8月14日爆弾の集中攻撃による空襲で壊滅した。明治12年から続いた大阪砲兵工廠の旧名で知られるこの施設は、昭和15年に陸軍造兵廠大阪工廠から大阪陸軍造兵廠に改称された。昭和23年に接収が解除となり、廃墟の施設の撤去が開始され、同33年から大阪城公園(杉山地区)としての整備が始まった。同45年に整備が完成して、今では市民の森の樹々も見違えるほどに大きく育っている。,,,,,廃墟の大阪陸軍造兵廠跡,,,,,,文化・観光/大阪の昔と今
271004,,大阪府,大阪市,御堂筋ガスビル付近,ミドウスジガスビルフキン,,,中央区平野町4丁目,,34.6881602,135.5002376,,,,,,,上段の写真：昭和10年代撮影・中段の写真：平成23年撮影・下段の写真：昭和17年撮影 ◇◇ 大阪瓦斯ビルヂング・通称ガスビルは、昭和8年に完成した、建築家である安井武雄設計の鉄骨鉄筋コンクリート造8階建のモダニズム建築のビルとして親しまれる。連続する深い軒の線や窓の輪郭、東南角にとられた大きな曲面が外観に特徴を与えている。戦時中は、エレベーター・手すり・窓枠なども供出され、白い外壁も黒く迷彩塗装されたという。その後、大阪ガス本社事務所拡張のため、昭和41年に、建築家である佐野正一設計による北館が一体的ビルとして増築されたが、御堂筋のビル群の中でも存在感を保っている。,,,,,御堂筋ガスビル付近,,,,,,文化・観光/大阪の昔と今
271004,,大阪府,大阪市,天王寺・阿倍野ターミナル,テンノウジ・アベノターミナル,,,天王寺区悲田院町10、阿倍野区阿倍野筋1丁目1,,34.6468457,135.5135291,,,,,,,上段の写真：昭和25年(1950)撮影・中段の写真：平成23年撮影・下段の写真：昭和28年撮影 ◇◇ 国鉄天王寺駅前の風景で、右側は近鉄阿部野橋駅と百貨店である。昭和37年に8階建の天王寺ステーションビル(天王寺民衆駅)が完成し、天王寺ステーションデパートと都ホテル大阪が開業した。同40年に、ステーションビルと近鉄をつなぐ阿倍野歩道橋が完成し、同45年には交差点部の回廊式になった。のち、ステーションデパートは、平成21年にリニューアルし、同23年には天王寺ミオプラザ館に名称変更した。平成25年に阿倍野歩道橋はabenoの頭文字aを図案化した形状に架け替えられた。また、近鉄は平成26年に超高層複合ビル・あべのハルカスへ建て替えられた。,,,,,天王寺・阿倍野ターミナル,,,,,,文化・観光/大阪の昔と今
271004,,大阪府,大阪市,地下鉄の延長,チカテツノエンチョウ,,,阿倍野区昭和町1丁目,,34.6356573,135.5173801,,,,,,,上段の写真：昭和26年~27年・中段の写真：平成23年撮影・下段の写真：昭和28年撮影 ◇◇ 戦時に中断していた地下鉄1号線の延長工事を再開、昭和26年に天王寺～昭和町、同27年に昭和町～西田辺間が開通した。資材不足と資金難で、トンネル上部の構築をあとに残したため、青空地下鉄と呼ばれた。その後、昭和33年に、あびこ筋の掘割区間の覆蓋工事を行うとともに、同35年には、西田辺～我孫子間が開通した。さらに、同62年に、我孫子～中百舌鳥間5kmの延長が完成し、堺市に中百舌鳥検車場が開設された。,,,,,地下鉄の延長,,,,,,文化・観光/大阪の昔と今
271004,,大阪府,大阪市,大阪市編入を祝う「みおつくし」,オオサカシヘンニュウヲイワウ「ミオツクシ」,,,平野区加美南1丁目9,,34.6241835,135.5698615,,,,,,,上段の写真：昭和30年(1955)撮影・中段の写真：平成23年撮影・下段の写真：昭和35年撮影 ◇◇ 昭和30年4月3日、大阪市編入を記念して加美南部小学校の児童たちが校庭に集まって描いた「みおつくし」。隣接6ヵ町村が合併されたうちの、加美村の加美南小学校の様子だが、当時、大阪市への編入を待ち望んでいたことの率直な現われと言えるのだろう。大阪市にとっても、昭和30年代は急激な都市化の進展の時期にあたり、加美地域でも、この時期から多くの市営住宅が建てられるなど、編入された町村も大きな変化を迎えていくことになった。,,,,,大阪市編入を祝う「みおつくし」,,,,,,文化・観光/大阪の昔と今
271004,,大阪府,大阪市,難波駅前の地下街建設,ナンバエキマエノチカガイケンセツ,,,中央区難波5丁目,,34.6651555,135.501329,,,,,,,上段の写真：昭和31年(1956)撮影・中段の写真：平成23年撮影 ◇◇ 昭和31年にナンバ地下センターの建設が始まり(写真左側は南街会館)、同32年12月完成オープン。大阪初の本格的な地下街の出現であった。その後、ウメダ、アベノなど次々に地下街が建設されていく。のち、ナンバ地下センターも、昭和49年に、南側への延伸とともに、100日間全店休業して全面改装し、「なんなんタウン」と改称してオープンした。さらに平成18年に、全面リニューアルして、「NAMBAなんなん」と改称オープンした。,,,,,難波駅前の地下街建設,,,,,,文化・観光/大阪の昔と今
271004,,大阪府,大阪市,平田の渡し,ヘイタノワタシ,,,東淀川区大道南1丁目、旭区太子橋1丁目,,34.7378616,135.5502342,,,,,,,"上段の写真：昭和44年(1969)撮影・中段の写真：平成23年撮影・下段の写真：昭和45年撮影 ◇◇ 淀川の平田の渡しは、昭和23年に大阪市の直営となり、昭和35年には21人乗りの発動機船、同38年には36人乗りの新造船を就航させ、最盛期には1日3,000人の乗客を運ぶ市民の足であった。その後、万博関連事業として昭和45年3月に、豊里大橋が開通したのに伴って、300年の歴史をもつ、淀川最後の平田の渡しは姿を消した。豊里大橋は、幅員19.5m・橋長561mの本格的な斜張橋で、上下2段のケーブル配置が採用されており、同58年からはライトアップも行われている。",,,,,平田の渡し,,,,,,文化・観光/大阪の昔と今
271004,,大阪府,大阪市,焼跡に出現した飛行場,ヤケアトニシュツゲンシタヒコウジョウ,,,西区靭本町1・2丁目,,34.6856166,135.4947473,,,,,,,上段の写真：昭和27年(1952)撮影・中段の写真：平成23年撮影・下段の写真：昭和28年撮影 ◇◇ 昭和20年、靱の戦災跡に軍用飛行場が設けられ、戦後、四つ橋筋から西の焼野原一面が進駐軍に接収され、滑走路約700mの小型飛行機発着場となっていた。昭和27年に接収解除されたため、飛行場跡を、失業対策事業により公園として整備を進め、同30年10月に、花壇や噴水・グランド・テニスコート・遊具などが整備された靱公園が開園した。のち靱公園は、平成7年に5000人収容のセンターコートなどをもつ靱テニスセンターが整備され、同8年にはバラ園も整備された。,,,,,焼跡に出現した飛行場,,,,,,文化・観光/大阪の昔と今
271004,,大阪府,大阪市,杭全町踏切,クマタチョウフミキリ,,,東住吉区今林3丁目,,34.6375313,135.538584,,,,,,,上段の写真：昭和30年代撮影・中段の写真：平成23年撮影・下段の写真：昭和39年撮影 ◇◇ 道路交通の安全確保と渋滞解消のため、市内の主要踏切りの立体化が推進された。写真は国鉄関西本線の杭全町踏切で、まだ蒸気機関車が走っている。その後、昭和42年に、関西本線の天王寺～平野間が高架化され、開かずの踏切として有名だった杭全踏切はようやく消えることになった。さらに同43年に、すぐ南の五差路の杭全交差点に回廊式の杭全歩道橋も設置され、自動車交通の利便は大きく向上したが、一方で最近は、五差路交差点に起因する、自転車利用者にとっての不便や危険性などが問題となっている。,,,,,杭全町踏切,,,,,,文化・観光/大阪の昔と今
271004,,大阪府,大阪市,埋立前の長堀川,ウメタテマエノナガホリガワ,,,中央区南船場2・3丁目,,34.6750622,135.5018471,,,,,,,"上段の写真：昭和35年(1960)撮影・中段の写真：平成23年撮影・下段の写真：昭和39年撮影 ◇◇ 大阪の船場と島之内を隔てる長堀川。舟運の衰退と水質汚濁進行で機能を失った河川対策として、長堀川の四つ橋以東が昭和35年～37年に埋立てられる。長堀駐車場(900台・地下駐車場)は同39年に完成し、四つ橋以西の長堀川は同41年～48年に埋立てられた。のち地下鉄長堀鶴見緑地線の計画が具体化し、平成9年、地下鉄長堀鶴見緑地線とともに、地下街・クリスタ長堀と長堀駐車場が開業した。クリスタ長堀は、堺筋までの全長730m、トップライトから自然光も採り入れて、ファッション・雑貨・グルメなどの店舗100店。新駐車場は地下3階の自走式で収容台数1,030台。",,,,,埋立前の長堀川,,,,,,文化・観光/大阪の昔と今
271004,,大阪府,大阪市,防潮堤かさ上げ工事,ボウチョウテイカサアゲコウジ,,,北区中之島2丁目,,34.6943163,135.5002591,,,,,,,上段の写真：昭和37年(1962)撮影・中段の写真：平成23年撮影・下段の写真：昭和39年撮影 ◇◇ 写真は昭和37年の、中之島堂島川左岸の大江橋西側の防潮堤かさ上げ工事。昭和36年9月16日、大阪を襲った第2室戸台風の高潮によって、堂島川の防潮堤を越えてあふれた水で、都心の中之島のビル街も浸水した。その苦い経験から、海岸から河川に至る防潮堤の全面かさ上げが行われた。かさ上げされた防潮堤によって、以後中之島は守られるが、高い護岸に囲まれ、水都の趣から遠くなる。その後、昭和61年に護岸と一体の中之島遊歩道(大江橋～渡辺橋南詰間)が完成し、その後中之島地域につながっていく。,,,,,防潮堤かさ上げ工事,,,,,,文化・観光/大阪の昔と今
271004,,大阪府,大阪市,連続機械式の住吉焼却工場,レンゾクキカイシキノスミヨシショウキャクコウジョウ,,,住之江区泉1丁目1,,34.6133067,135.4671874,,,,,,,上段の写真：昭和38年(1963)撮影・中段の写真：平成23年撮影・下段の写真：昭和39年撮影 ◇◇ 人口の回復と生活の向上で排出されるごみは急激に増加。これに対応し、昭和38年2月に全国初の連続機械式ごみ焼却施設、住吉工場を完成させた。のち、老朽化に伴い、昭和63年に加賀屋に住之江工場が完成して、住吉工場は廃止となる。跡地は現在、西南環境事業センターとして、ごみの収集・運搬・減量・美化・啓発等の事務所、ごみ収集車車庫などとなっている。,,,,,連続機械式の住吉焼却工場,,,,,,文化・観光/大阪の昔と今
271004,,大阪府,大阪市,西成区役所,ニシナリクヤクショ,,,西成区岸里1丁目5,,34.6345471,135.4941706,,,,,,,上段の写真：昭和29年(1954)撮影・中段の写真：平成23年撮影・下段の写真：昭和35年撮影 ◇◇ 区勢の発展と事務量増加で、木造の区役所庁舎の建て替えが望まれていたなかで、写真は昭和29年に完成した、戦後初の鉄筋コンクリート造りの西成区役所。のち、老朽化に伴う建替えにより、平成16年に、鉄骨鉄筋コンクリート造8階建の西成区役所新庁舎が完成した。新施設は、西成区役所・保健福祉センター・在宅サービスセンター・岸里駅自転車駐車場の複合施設となっている。,,,,,西成区役所,,,,,,文化・観光/大阪の昔と今
271004,,大阪府,大阪市,市立中央図書館,シリツチュウオウトショカン,,,西区北堀江4丁目3,,34.6737701,135.4862198,,,,,,,"上段の写真：昭和36年(1961)撮影・中段の写真：平成23年撮影・下段の写真：昭和39年撮影 ◇◇ 昭和34年の市制70周年記念事業として、西区北堀江に着工した市立中央図書館は、同36年11月に待望の開館。全館開架式にするなど最新の設備を誇り、電話による調査・照会サービスも開館時から行った。そののち、老朽化に伴い、建替えられることになり、平成4年から旧電気科学館を仮設図書館として建替え工事を進め、平成8年11月、鉄骨鉄筋コンクリート造6階建・地下6階の新・中央図書館が開館した。7,840㎡の閲覧室と、地下書庫・蔵書数171万冊を備える。",,,,,市立中央図書館,,,,,,文化・観光/大阪の昔と今
271004,,大阪府,大阪市,市立婦人会館,シリツフジンカイカン,,,天王寺区上汐5丁目6,,34.65966,135.5155503,,,,,,,上段の写真：昭和37年(1962)撮影・中段の写真：平成23年撮影・下段の写真：昭和39年撮影 ◇◇ 婦人の社会進出が進むなかで、昭和37年10月、婦人の教養・文化のセンターとして、婦人会館が天王寺区に開館。講演・研究会・サークル活動など盛んに利用されている。そののち、廃止となり、跡地には、平成13年に市立女性いきいきセンター中央館(クレオ大阪中央)が開館した。4階建・地下2階の施設で、1000人収容のホール、展示ギャラリー、セミナーホール・音楽室、会議室・研修室などを備えている。クレオ大阪は市内5ヵ所に設置されており、男女共同参画基本法の制定にともなって、同13年に女性いきいきセンターは、男女共同参画センターと改称された。,,,,,市立婦人会館,,,,,,文化・観光/大阪の昔と今
271004,,大阪府,大阪市,難波宮の遺跡発掘,ナニワノミヤノイセキハックツ,,,中央区法円坂１丁目6,,34.67983,135.5233003,,,,,,,上段の写真：昭和45年(1970)撮影・中段の写真：平成23年撮影・下段の写真：昭和45年撮影 ◇◇ 難波宮については、近年までその所在地が確認されていなかったが、昭和28年に、法円坂の住宅建築現場から鴟尾の破片が出土、幻の難波宮の所在がようやく明らかになる。その後、山根徳太郎大阪市大教授らによる発掘調査で、昭和36年に大極殿跡が発見されて、「難波宮跡」であることが確認された。写真は、昭和45年の第37次後期難波宮大極殿の発掘調査の様子。その後、難波宮跡は、昭和39・51・61年に国の史跡に指定され、昭和51年、後期難波宮大極殿の基壇を復元するなどして史跡公園として一般公開されている。今も発掘調査は続けられ、古代都市大坂の姿が浮かび上げってきている。,,,,,難波宮の遺跡発掘,,,,,,文化・観光/大阪の昔と今
271004,,大阪府,大阪市,市立大学付属病院の新館,シリツダイガクフゾクビョウインノシンカン,,,阿倍野区旭町1丁目5,,34.6469798,135.5089901,,,,,,,上段の写真：昭和31年(1956)撮影・中段の写真：平成23年撮影・下段の写真：昭和35年撮影 ◇◇ 医学専門学校付属病院は、戦後市立医科大学病院に発展。30年市立大学医学部付属病院となり、同31年4月に地下2階・地上7階建の新館(のち北館)が完成した。その後、同36年にガンセンター、43年に7階建の第2新館(のち東館)が完成した。そののち、建て替えのため本館・南館・北館・東館を順次解体し、平成5年に、鉄骨鉄筋コンクリート造18階建の新病院をオープンした。なお、大阪市立大学は平成18年に公立大学法人大阪市立大学となっている。,,,,,市立大学付属病院の新館,,,,,,文化・観光/大阪の昔と今
271004,,大阪府,大阪市,小児保健センター,ショウニホケンセンター,,,東成区東中本2丁目,,34.6788442,135.5482703,,,,,,,上段の写真：昭和40年(1965)撮影・中段の写真：平成23年撮影・下段の写真：昭和42年撮影 ◇◇ 小児疾患の早期発見・予防を含む総合医療を行う関西唯一の専門病院として、昭和40年10月、鉄筋コンクリート造5階建の小児保健センターが開設された。そののち、小児保健センターは、桃山・城北市民病院などとともに、平成5年に市立総合医療センターとして統合された。その後、小児保健センターの跡地には、平成10年に、おとしよりすこやかセンター東部館、東成スポーツセンターが建設されている。,,,,,小児保健センター,,,,,,文化・観光/大阪の昔と今
271004,,大阪府,大阪市,十三市民病院,ジュウソウシミンビョウイン,,,淀川区十三東2丁目3,,34.7211299,135.48668,,,,,,,上段の写真：昭和35年(1960)頃撮影・中段の写真：平成23年撮影・下段の写真：昭和39年撮影 ◇◇ 戦前の市立総合病院は2ヵ所であったが、戦後保健医療の充実を期し、昭和28年12月までに、北・東・桃山・今宮・住吉・日本橋・十三・城北の8市民病院を整備した。写真は同35年ごろの十三市民病院。十三市民病院は、昭和24年に開設し、同33年に鉄筋コンクリート造5階建に建替えられた。そののち、平成14年に、野中北二丁目に新病院が完成し移転された。跡地には、鉄筋コンクリート造5階建の淀川区役所・保健福祉センター・淀川屋内プールの複合施設が建設されている。,,,,,十三市民病院,,,,,,文化・観光/大阪の昔と今
271004,,大阪府,大阪市,長吉出戸南の市営住宅,ナガヨシデトミナミノシエイジュウタク,,,平野区長吉出戸8丁目,,34.6081065,135.5757277,,,,,,,上段の写真：昭和40年(1965)撮影・中段の写真：平成23年撮影・下段の写真：昭和42年撮影 ◇◇ 昭和26年4月、住宅政策の根幹を成す公営住宅法が制定され、市の公営住宅建設が本格化した。職住近接、土地の高度利用、不燃化促進を基本とし、中・高層住宅が建設された。市営長吉出戸南住宅は、昭和40年に建設された、鉄筋コンクリート造5階建住宅団地である。そののち、建て替えにより、平成17年から順次、鉄骨鉄筋コンクリート造14階建に高層化されている。,,,,,長吉出戸南の市営住宅,,,,,,文化・観光/大阪の昔と今
271004,,大阪府,大阪市,大正橋の架替え,タイショウバシノカケカエ,,,浪速区幸町3丁目、大正区三軒家東1丁目,,34.667594,135.480679,,,,,,,上段の写真：昭和44年(1969)撮影・中段の写真：平成23年撮影・下段の写真：昭和45年撮影 ◇◇ 大正橋は、大正4年に架設され、当時日本一長いアーチ橋であったが、老朽化が進み、昭和31年から補強工事を行い、老朽橋の維持管理に努めた。その後、泉尾今里線の整備に伴って、架け替え工事が行われた。昭和44年の左側の新橋完成後、同46年に旧鉄橋を撤去して、幅員41mへの拡幅が同49年に完成したが、取付け道路のかさ上げの関係から、全面開通は同52年になった。以前の写真の背景右側に見えているガスタンクのあたりに、平成23年現在は京セラドーム大阪（大阪ドーム）が見える。,,,,,大正橋の架替え,,,,,,文化・観光/大阪の昔と今
271004,,大阪府,大阪市,地下鉄と高速道路の同時施工,チカテツトコウソクドウロノドウジセコウ,,,西区土佐堀１丁目、北区中之島2丁目,,34.6927689,135.4962133,,,,,,,上段の写真：昭和39年(1964)撮影・中段の写真：平成23年撮影・下段の写真：昭和42年撮影 ◇◇ 阪神高速道路大阪池田線は昭和37年起工、一方地下鉄四つ橋線は同38年に着工した。写真は、同39年春ごろの肥後橋の工事現場で、左に阪神高速道路の橋脚が見える。その後昭和40年に、阪神高速道路・梅田～道頓堀間、地下鉄・西梅田～大国町間が開通した。地下鉄工事に伴う肥後橋の架け替えも同41年に完成し、幅員が27mから29mに拡幅された。のち肥後橋は、平成6年に橋面と高欄部の改装が行われた。,,,,,地下鉄と高速道路の同時施工,,,,,,文化・観光/大阪の昔と今
271004,,大阪府,大阪市,京阪ビルとOMMビル,ケイハンビルトオーエムエムビル,,,中央区大手前1丁目7、天満橋京町,,34.6902458,135.5169698,,,,,,,上段の写真：昭和44年(1969)撮影・中段の写真：平成23年撮影・下段の写真：昭和45年撮影 ◇◇ 京阪ビルディング(写真の手前)は、Ⅰ期が昭和38年、Ⅱ期が同41年に完成した鉄筋コンクリート造8階建のビルで、京阪天満橋駅、松坂屋・商業施設と旅行会館(のちのキャッスルホテル)。そののち松坂屋は平成16年に撤退し、同17年、外装改修し京阪シティモールがオープンした。一方の、大阪マーチャンダイズマート(OMM)ビル(写真の奥側)は、日本最初の卸センタービルとして、旧京阪天満橋駅跡地に昭和44年に完成オープンした22階建ビルである。そののち、平成元年に外装の全面カーテンウォール化改修を行い外観が一変している。,,,,,京阪ビルとOMMビル,,,,,,文化・観光/大阪の昔と今
271004,,大阪府,大阪市,港大橋の建設工事,ミナトオオハシノケンセツコウジ,,,港区海岸通3丁目,,34.645116,135.4383771,,,,,,,上段の写真：昭和49年(1974)撮影・中段の写真：平成23年撮影・下段の写真：昭和59年撮影 ◇◇ 港区天保山と住之江区南港を結び、大阪湾岸線の一部を形成する、世界最大級の3径間ゲル—トラス橋(全長980m)で、大型コンテナ船が航行できるよう水面からの桁下高51.5mの長大橋である。写真は昭和49年2月に行われた長さ186m・高さ22.5mの中央部桁の取付工事。同年7月に開通し、上下2層のダブルデッキになっており、上段が阪神高速道路の大阪港線、下段が湾岸線である。赤く塗装された巨大橋は圧倒的な存在感で、大阪港のシンボルとなっている。のち、平成7年の阪神大震災では一部損傷もあり、同14～19年度に耐震補強工事を行っている。,,,,,港大橋の建設工事,,,,,,文化・観光/大阪の昔と今
271004,,大阪府,大阪市,埋立前の大野川,ウメタテマエノオオノガワ,,,西淀川区大和田,,34.7045023,135.4476215,,,,,,,上段の写真：昭和40年代前半撮影・中段の写真：平成23年撮影・下段の写真：昭和35年撮影 ◇◇ 西淀川区の大野川は、淀川北岸一帯がまだ農地であったころの川で、都市化の進行でどぶ川と化し、排水機能を失い、環境の悪化を招いていた。そのため、浸水対策と環境整備の両面から埋立計画がたてられ、幹線下水道を埋設した後、昭和45年から埋立・整備工事が開始された。大野川歩行者・自転車専用道は昭和54年に全線が開通し、緑陰歩道と自転車専用道が整備され、地域社会に直結した生活道路、あるいは緑の散歩道や、ランニングコースとして利用されている。,,,,,埋立前の大野川,,,,,,文化・観光/大阪の昔と今
271004,,大阪府,大阪市,西淀川区役所,ニシヨドガワクヤクショ,,,西淀川区御幣島1丁目2,,34.7113602,135.4562103,,,,,,,上段の写真：昭和32年(1957)頃撮影・中段の写真：平成23年撮影・下段の写真：昭和35年撮影 ◇◇ 西淀川区役所は、昭和32年、歌島橋交差点角に鉄筋コンクリート造3階建の庁舎が完成した。その後、老朽化にともない、平成17年に建替えられて、西淀川図書館と水道局サービスステーション、災害用備蓄倉庫併設の複合施設として、鉄骨鉄筋コンクリート造地下2階地上6階建の新庁舎が完成した。新庁舎は、平成9年に開通したJR東西線御幣島駅とつながる、サンクンガーデンを庁前広場に配置し、区民が憩える場としている。,,,,,西淀川区役所,,,,,,文化・観光/大阪の昔と今
271004,,大阪府,大阪市,中島大水道,ナカジマダイスイドウ,,,東淀川区西淡路5丁目,,34.7418128,135.5132656,,,,,,,上段の写真：昭和30年(1955)頃撮影・中段の写真：平成23年撮影・下段の写真：昭和35年撮影 ◇◇ 中島大水道は、度重なる水害と水はけの悪さに耐えかねた北中島22ヵ村の村民たちが、延宝6年(1678)に自力で開さくしたものである。そののち、水利組合から昭和18年に市に移管された。大水路はその後、機能低下や水質悪化のために埋め立てまたは暗渠化されて、東海道新幹線・十三バイパス用地などに利用されている。現在、西淡路5丁目の新幹線高架のそばに中島大水道顕彰碑が建てられている。,,,,,中島大水道,,,,,,文化・観光/大阪の昔と今
271004,,大阪府,大阪市,博愛社,ハクアイシャ,,,淀川区十三元今里3丁目1,,34.7219624,135.4760356,,,,,,,上段の写真：昭和30年(1955)頃撮影・中段の写真：平成23年撮影・下段の写真：昭和35年撮影 ◇◇ 博愛社は、明治23年に創立され、明治32年に現在の地に移転して、児童保護をはじめとして学校・乳児院・母子ホームなど、さまざまな社会事業を行ってきた。この聖贖主教会礼拝堂は、建築家のヴォーリズ設計で昭和11年に完成している。昭和27年、この地を本部とする社会福祉法人となってしだいに施設を拡充し、現在では、児童養護施設・保育園・特別養護老人ホーム・ケアハウス・介護サポートセンターなどの事業を行っている。,,,,,博愛社,,,,,,文化・観光/大阪の昔と今
271004,,大阪府,大阪市,府立北野高校,フリツキタノコウコウ,,,淀川区新北野2丁目5,,34.7156201,135.47804,,,,,,,上段の写真：昭和30年(1955)頃撮影・中段の写真：平成23年撮影・下段の写真：昭和17年撮影 ◇◇ 北野高校は、明治6年に設立された欧学校を前身とし、変遷して大阪府中学校・堂島中学校などと改称、さらに明治35年北野芝田町に移転して、府立北野中学校として長く北野の地にあった。その後、昭和6年に十三南之町(府立修徳館跡)に移転し、昭和23年学制改革によって府立北野高校となる。昭和37年・55年には校舎新館が完成、さらに、平成15年に校舎改築工事が完成している。,,,,,府立北野高校,,,,,,文化・観光/大阪の昔と今
271004,,大阪府,大阪市,鐘淵紡績中島工場,カネガフチボウセキナカジマコウジョウ,,,東淀川区東淡路1丁目,,34.7344278,135.5201061,,,,,,,上段の写真：昭和30年(1955)頃撮影・中段の写真：平成23年撮影・下段の写真：昭和35年撮影 ◇◇ 鐘淵紡績中島工場は、明治32年に、当時の西成郡西中島村に開業した。戦災をまぬがれ、戦後は新工場の増設とともに、紡織一貫工場として操業してきた。のちの繊維不況とともに工場は縮小・閉鎖され、東側跡地には、昭和50年頃から約800戸の大規模マンション(エバーグリーン淀川)が建設され、西側跡地には、昭和53年から住宅供給公社淡路コーポ、市営東淡路第2住宅、さらに平成5年に、市立女性いきいきセンター北部館(クレオ大阪北)、東淀川スポーツセンターなどが開設されている。,,,,,鐘淵紡績中島工場,,,,,,文化・観光/大阪の昔と今
271004,,大阪府,大阪市,淀川キリスト教病院,ヨドガワキリストキョウビョウイン,,,東淀川区淡路2丁目9,,34.7363601,135.5129099,,,,,,,上段の写真：昭和30年(1955)頃撮影・中段の写真：平成23年撮影・下段の写真：昭和35年撮影 ◇◇ 淀川キリスト教病院は、昭和30年に、当時医療環境に恵まれなかった淡路の地に、淀川キリスト教診療所として開設された。昭和35年に淀川キリスト教病院となり、その後のあいつぐ拡張によって、各診療科建物の分散・老朽化が課題となってきた。さらに都市計画道路事業による施設移転の必要もあり、昭和57年から改築を始め、平成14年に増改築による新病院が完成し、つづいて新施設も開設してきている。,,,,,淀川キリスト教病院,,,,,,文化・観光/大阪の昔と今
271004,,大阪府,大阪市,長柄橋,ナガラバシ,,,東淀川区柴島1丁目、北区天神橋8丁目,,34.7218904,135.5098471,,,,,,,上段の写真：大正期撮影・中段の写真：平成23年撮影・下段の写真：昭和17年撮影 ◇◇ 長柄橋は古来より有名であるが、詳細は明らかでなく、新淀川開さく後の明治42年、延長674mの鉄製のポニートラス橋が架けられた。さらに昭和11年には、十大放射道路事業の一つとしてすぐ下流側に幅員20m・橋長656mの橋に架け替えられ、同時に長柄可動堰が設置された。その後、昭和30年代に自動車交通が急激に増加し、長柄橋は市内随一の渋滞個所となり、混雑を解消するために、同39年にｂ字形曲線橋の長柄バイパスが完成した。さらに長柄橋も、淀川改修計画に沿って、昭和58年に中央部アーチ形式・橋長656mの新橋が開通した。(長柄橋と向こう側に見えているのが長柄バイパス),,,,,長柄橋,,,,,,文化・観光/大阪の昔と今
271004,,大阪府,大阪市,赤川鉄橋,アカガワテッキョウ,,,都島区大東町3丁目,,34.7307852,135.5267835,,,,,,,上段の写真：昭和38年(1963)頃撮影・中段の写真：平成23年撮影・下段の写真：昭和17年撮影 ◇◇ 昭和4年3月、城東貨物線の淀川橋梁が開通したが、当初単線運行とされて、線路の上流側の部分に、歩行者・自転車用として木造の赤川仮橋が設けられた。明治の新淀川開削により600mも隔てられることになった、両岸の住民の日常の生活動線として、地元では「赤川鉄橋」と呼ばれ親しまれてきた。現在事業中のおおさか東線により、淀川橋梁も旅客用に複線化されることになるが、歩行者橋の取り扱いについては、現段階では未定となっている。,,,,,赤川鉄橋,,,,,,文化・観光/大阪の昔と今
271004,,大阪府,大阪市,城北公園,シロキタコウエン,,,旭区生江3丁目29,,34.7296963,135.537289,,,,,,,上段の写真：昭和10年(1935)頃撮影・中段の写真：平成23年撮影・下段の写真：昭和17年撮影 ◇◇ 明治期の新淀川開さく後、旧中津川の蛇行部の河川敷が水面の多い空地となっていた部分を、公園として利用する工事が進められ、昭和9年5月に9.5haが城北公園として開設された。開設当時、園地の約3分の1は池で、園内には教材園・貸農園・温室・魚釣場などが設けられていた。戦後の再整備・拡張に際し、池の一部が埋め立てられたが、もとの池を利用して昭和39年に大規模な菖蒲園が設けられるなど、整備が進められて市民に親しまれている。,,,,,城北公園,,,,,,文化・観光/大阪の昔と今
271004,,大阪府,大阪市,城北市民病院,シロキタシミンビョウイン,,,旭区高殿6丁目14,,34.7174698,135.54608,,,,,,,上段の写真：昭和32年(1957)頃撮影・中段の写真：平成23年撮影・下段の写真：昭和35年撮影 ◇◇ 城北市民病院は、昭和28年12月、北東地域における中核病院として開設され、昭和52年からは全日救急医療も実施してきたが、医療施設の再編整備に伴い、平成5年に総合医療センターに統合された。跡地には、平成14年、おとしよりすこやかセンター北部館・旭屋内プール・城北市民学習センターの複合施設が建設され、8階建施設の上部は住宅供給公社のコーシャハイツ高殿となっている。,,,,,城北市民病院,,,,,,文化・観光/大阪の昔と今
271004,,大阪府,大阪市,毛馬洗堰,ケマアライゼキ,,,都島区毛馬町3丁目,,34.7201771,135.5173532,,,,,,,上段の写真：昭和40年(1965)撮影・中段の写真：平成23年撮影・下段の写真：昭和17年撮影 ◇◇ 新淀川の開削に伴って、明治43年に、新淀川から大川(旧淀川)の入り口部に設けられた洗堰・閘門。流量調節用の煉瓦造の「毛馬洗堰」と、写真の奥(右岸)は、水位差のある両川の船の通航のために、明治40年に完成した「毛馬閘門」と、大正7年に完成した第二閘門となっている。のち、昭和49年に大川左岸側に新しい「毛馬閘門」が完成し、昭和58年には新しく「毛馬水門」「毛馬排水機場」が完成した。なお旧閘門は昭和51年に廃止され、第一閘門旧跡(重要文化財に指定)周辺は、公園として整備されている。,,,,,毛馬洗堰,,,,,,文化・観光/大阪の昔と今
271004,,大阪府,大阪市,大阪大学工学部,オオサカダイガクコウガクブ,,,都島区東野田町4丁目15,,34.6993101,135.5288869,,,,,,,上段の写真：昭和11年(1936)頃撮影・中段の写真：平成23年撮影・下段の写真：昭和17年撮影 ◇◇ 大阪大学工学部(東野田学舎)は、大正10年に中之島から移転した大阪高等工業学校が、大阪工業大学を経て、昭和8年に大阪帝国大学工学部になったもので、昭和22年に新制の大阪大学となった。(写真は、昭和11年に建替えられた本館)。のち、大阪大学の吹田移転にともない、工学部も昭和46年に吹田キャンパスに移転した。その後跡地は、NTT西日本大阪研修センターと、昭和54年に移転開校した市立東高校となっている。,,,,,大阪大学工学部,,,,,,文化・観光/大阪の昔と今
271004,,大阪府,大阪市,鐘淵紡績淀川工場,カネガフチボウセキヨドガワコウジョウ,,,都島区友淵町1丁目,,34.7167772,135.5272948,,,,,,,上段の写真：大正13年撮影・中段の写真：平成23年撮影・下段の写真：昭和17年撮影 ◇◇ 大正7年に、友淵町に開業した鐘淵紡績淀川工場は、社宅などを含む広大な敷地で区内でも最大の工場であった。しかし、戦後の繊維不況などもあり、昭和49年に淀川工場は休止され、長浜工場に移転して、同57年には全面閉鎖された。跡地には、36階建超高層2棟を含む約3600戸の「ベルパーク・シティ」をはじめ、公団リバーサイドともぶち団地・公社友淵コーポ・市営友淵住宅や、友淵小学校・友淵中学校などが建設され、大規模な住宅地に転換されている。,,,,,鐘淵紡績淀川工場,,,,,,文化・観光/大阪の昔と今
271004,,大阪府,大阪市,市電都島車庫,シデンミヤコジマシャコ,,,都島区都島本通2丁目13,,34.7076801,135.5240299,,,,,,,上段の写真：昭和30年代撮影・中段の写真：平成23年撮影・下段の写真：昭和35年撮影 ◇◇ 市電都島車庫は、大正11年に桜の宮水源地跡に運輸事務所・変電所とともに建設されたが、昭和20年戦災により焼失する。翌年に縮小して再開するが、昭和44年の市電全廃に伴い都島車庫も廃止となった。跡地には平成5年、鉄骨鉄筋コンクリート造18階建の市立総合医療センターが開設された。総合医療センターは、既設の市立桃山病院・桃山市民病院・城北市民病院・母子センター・小児保健センターを統廃合して開設されたもので、高度専門医療機能を有する基幹病院である。,,,,,市電都島車庫,,,,,,文化・観光/大阪の昔と今
271004,,大阪府,大阪市,此花西部地区,コノハナセイブチク,,,此花区桜島2丁目,,34.6661758,135.4340127,,,,,,,上段の写真：昭和50年代撮影・中段の写真：平成23年撮影・下段の写真：昭和49年撮影 ◇◇ 此花区西部には西六社と呼ばれた巨大工場群があった。桜島地区には、明治33年に、大阪鉄工所の桜島造船場(のちの日立造船)が開業し、昭和になってからは、住友金属工業の工場も拡張された。しかしその後、産業構造の変化への対応の遅れから、大きな転換を迫られてきた。そんななか、このエリアを活用し、世界の人々を大阪に注目させる大プロジェクトとして、ユニバーサル・スタジオを核とするまちづくりが動き出す。平成7年、基盤整備のための此花西部臨海地区土地区画整理事業がスタートし、同13年には、「ユニバーサル・スタジオ・ジャパン(USJ)」が開業して、初年度1102万人をピークに年間約800万人で推移し、その後、イベント開催や人気アトラクションの導入によって増加し、多くの観客を集めている。,,,,,此花西部地区,,,,,,文化・観光/大阪の昔と今
271004,,大阪府,大阪市,塩水港製糖大阪工場,エンスイコウセイトウオオサカコウジョウ,,,此花区西九条6丁目1,,34.6800701,135.4613596,,,,,,,上段の写真：昭和初期撮影・中段の写真：平成23年撮影・下段の写真：昭和17年撮影 ◇◇ 塩水港製糖(昭和25年に塩水港精糖と改称)は、戦前は4大製糖の一つと称される大企業であった。塩水港製糖大阪工場は大正9年に開業され、煉瓦造4階建の工場建屋が並んでいたが、のち昭和48年に泉佐野市に移転した。跡地は大阪市が買収し、広場・グラウンドなどとして利用されていたが、平成20年に、中高一貫の市立咲くやこの花中学校・高校が開校している。,,,,,塩水港製糖大阪工場,,,,,,文化・観光/大阪の昔と今
271004,,大阪府,大阪市,関西電力春日出第２発電所,カンサイデンリョクカスガデダイニハツデンショ,,,此花区西九条7丁目,,34.6778802,135.4600101,,,,,,,上段の写真：昭和33年(1958)頃撮影・中段の写真：平成23年撮影・下段の写真：昭和35年撮影 ◇◇ 関西電力春日出第２発電所は、大正１１年に、大阪電灯春日出第２発電所として完成した。高さ70ｍの８本煙突が市民の目を引いていたが、昭和34年に建替えのため廃止され、煙突も姿を消した。同38年に新たに本格的な春日出発電所が完成したが、のち平成14年に廃止となって、翌年取り壊された。その後跡地には、ホームセンターのコーナンとディスカウントストアのラ・ムーの店舗が開業している。,,,,,関西電力春日出第２発電所,,,,,,文化・観光/大阪の昔と今
271004,,大阪府,大阪市,阪神野田踏切,ハンシンノダフミキリ,,,福島区海老江5丁目,,34.6945242,135.4743695,,,,,,,上段の写真：昭和33年(1958)撮影・中段の写真：平成23年撮影・下段の写真：昭和35年撮影 ◇◇ 阪神電鉄が野田駅西の国道2号と交差する野田阪神の踏切は、道路の中央で2つに分かれている遮断機があり、長く交通の難所となっていた。関係者の努力の結果、昭和32年、長年の懸案であった立体交差化のための高架工事に着手されることになる。昭和36年7月にまず上り線が、つづいて11月に下り線が開通し、翌年9月には全工事が完了して、大阪名物と言われた開かずの踏切が解消された。その後、昭和56年には、阪神電鉄高架と併行して阪神高速道路大阪西宮線の高架が完成している。,,,,,阪神野田踏切,,,,,,文化・観光/大阪の昔と今
271004,,大阪府,大阪市,川と住宅と煙突,カワトジュウタクトエントツ,,,福島区福島3丁目、北区中之島5丁目,,34.6898403,135.4856957,,,,,,,上段の写真：大正元年(1926)撮影・中段の写真：平成23年撮影・下段の写真：昭和17年撮影 ◇◇ かつて大阪は、「煙の都」「東洋のマンチェスター」と呼ばれ、工場の煙突が立ち並び黒煙をふきあげている市街地風景が、都心近くにもあった。この写真は、堂島川の玉江橋から福島・西九条・中之島・本田方面を写したものである(煤煙防止研究会大正元年会報掲載)。それから戦後の高度成長期まで、煤煙やスモッグによる公害問題は続く。いまの市街地風景は当時と全く様変わりし、中之島には大阪国際会議場・リーガロイヤルホテルなどの大規模な施設が並び、福島側には超高層マンションなどもそびえる。,,,,,川と住宅と煙突,,,,,,文化・観光/大阪の昔と今
271004,,大阪府,大阪市,大阪大学医学部付属病院,オオサカダイガクイガクブフゾクビョウイン,,,福島区福島1丁目1,,34.6943901,135.4896902,,,,,,,上段の写真：昭和48年(1973)撮影・中段の写真：平成23年撮影・下段の写真：昭和49年撮影 ◇◇ 大阪大学医学部附属病院は、老朽化した旧病院の建替えにより、昭和48年に9階建の新病院が完成した。その後、大阪大学の吹田キャンパス移転にともない、平成5年に附属病院も吹田に新築移転し、約70年にわたる堂島の立地にピリオドを打たれた。跡地のうち東側は、平成13年に検察庁などの24階建大阪中之島合同庁舎が、西側には、平成20年に朝日放送・多目的ホールや商業施設(堂島クロスウォーク、リバーフォーラム)、49階建超高層マンションなどの複合する「ほたるまち」が、水都大阪の新拠点として誕生している。,,,,,大阪大学医学部付属病院,,,,,,文化・観光/大阪の昔と今
271004,,大阪府,大阪市,中央卸売市場,チュウオウオロシウリシジョウ,,,福島区野田1丁目1,,34.6840547,135.4777119,,,,,,,上段の写真：昭和6年(1931)頃撮影・中段の写真：平成23年撮影・下段の写真：昭和17年撮影 ◇◇ 大阪市中央卸売市場は、水運・陸運などの条件から下福島を建設場所としたが、建設予定地には、多数の民家や、学校・伸銅所・倉庫などが密集、住民の反対運動や補償などで交渉は難航した。昭和6年に開場した市場は、敷地12haでその規模・設備はまさに東洋一であった。戦災により相当被害をうけるが、その後も施設の充実強化や拡張を進めてきた。さらに、平成2年からは、業務管理棟を手始めに、建替整備事業に着手し、3期にわたる工事が平成14年10月に完成して、市場は大きく生まれ変わった。,,,,,中央卸売市場,,,,,,文化・観光/大阪の昔と今
271004,,大阪府,大阪市,第一生命ビル,ダイイチセイメイビル,,,北区梅田1丁目8,,34.7006122,135.4966809,,,,,,,上段の写真：昭和28年(1953)撮影・中段の写真：平成23年撮影・下段の写真：昭和35年撮影 ◇◇ 大阪駅前の第一生命ビルは、12階建(軒高41m)の計画であったが、当時の建築基準法上の特例許可が必要となるため、9階建として見切り着工し昭和27年に一応完成したという。直後に許可を得て、昭和28年に12階建ビルが完成したもので、いわば当時の31m規制のもとでの特例による高層ビル第1号であった。その後、平成2年に建替えられ、現在は敷地東側に公開空地をとった19階建の大阪第一生命ビルディングとして、大阪駅のほぼ正面の位置に建つ。,,,,,第一生命ビル,,,,,,文化・観光/大阪の昔と今
271004,,大阪府,大阪市,大阪駅前市街地改造事業,オオサカエキマエシガイチカイゾウジギョウ,,,北区梅田1丁目,,34.6989652,135.4985499,,,,,,,上段の写真：昭和39年(1964)頃撮影・中段の写真：平成23年撮影・下段の写真：昭和42年撮影 ◇◇ 大阪駅前市街地改造事業は、当初予定していた土地区画整理事業の立体換地手法から、新たに法制化した市街地改造法の事業に切り替えて実施したものである。昭和36年に都市計画決定を行い、昭和40年に第1棟ビルに着工、西半分が同44年、東半分が同45年に完成、その後、当初計画の見直しとあわせ、第2～第4ビルに順次着工していく。こうして昭和58年5月、12階建・16階建・34階建・25階建、総延床42万㎡の4棟のビルが完成した。この20年に及ぶ事業によって、御堂筋から大きくセットバックしたオープンスペースが設けられるなど、大阪の表玄関にふさわしい都市景観が実現した。,,,,,大阪駅前市街地改造事業,,,,,,文化・観光/大阪の昔と今
271004,,大阪府,大阪市,大阪中央電信局,オオサカチュウオウデンシンキョク,,,北区堂島3丁目1,,34.6946368,135.4914574,,,,,,,上段の写真：昭和2年(1927)頃撮影・中段の写真：平成23年撮影・下段の写真：昭和17年撮影 ◇◇ 大阪中央電信局は昭和2年に完成した、建築家の山田守設計による鉄筋コンクリート造5階建ビルで、弧形の屋階が特徴であった。のち電電公社大阪中央電報局となるが、昭和41年ごろ取り壊される。跡地には昭和45年、電電公社福島電話局が建てられ、その後電電公社の民営化にともない、現在は、NTTテレパーク堂島の第3ビルとなっている。,,,,,大阪中央電信局,,,,,,文化・観光/大阪の昔と今
271004,,大阪府,大阪市,三菱金属鉱業大阪製錬所,ミツビシキンゾクコウギョウオオサカセイレンショ,,,北区天満橋1丁目8,,34.7002086,135.5199922,,,,,,,上段の写真：昭和40年(1965)頃撮影・中段の写真：平成23年撮影・下段の写真：昭和42年撮影 ◇◇ 三菱金属大阪製錬所は、明治29年に宮内省所管の大阪製錬所の払い下げを受けた三菱合資会社が、大阪支店付属大阪製錬所としたのに始まる。粗銅の電気精錬工場として、国内最大の能力を誇ってきたが、時代とともにその役割を終え、平成元年に閉炉される。跡地は、「大阪アメニティパーク(OAP)」として、商業施設・オフィス・ホテル・住宅などの大規模な複合機能を導入したまちづくりがすすめられ、平成8年に39階建のOAPタワーが完成したのをはじめ、帝国ホテル大阪や超高層マンションなどが完成している。,,,,,三菱金属鉱業大阪製錬所,,,,,,文化・観光/大阪の昔と今
271004,,大阪府,大阪市,朝日新聞社,アサヒシンブンシャ,,,北区中之島3丁目2,,34.6932952,135.4956043,,,,,,,上段の写真：大正5年(1916)撮影・中段の写真：平成23年撮影・下段の写真：昭和17年撮影 ◇◇ 大阪朝日新聞社ビルは、近世ルネサンス式・鉄筋コンクリート造4階建で時計塔つきのビルが、大正5年に完成した。その後、建替えのために昭和40年に取り壊され、同43年に13階建の朝日新聞ビルが完成し、ビルの中を阪神高速道路が通るという立体道路の先駆けでもあった。さらに現在、四つ橋筋をはさんだフェスティバルホールとともに、高さ200mのツインタワーへの建替えが、平成30年の完成をめざして進められているところである。,,,,,朝日新聞社,,,,,,文化・観光/大阪の昔と今
271004,,大阪府,大阪市,大阪市庁舎,オオサカシチョウシャ,,,北区中之島1丁目3,,34.6937549,135.5022076,,,,,,,上段の写真：大正10年(1921)撮影・中段の写真：平成23年撮影・下段の写真：昭和17年撮影 ◇◇ 大正10年、3代目となる大阪市庁舎が中之島に完成し、堂島の木造庁舎から移転した。新市庁舎は、設計公募による近代ルネサンス様式の塔屋つき鉄筋コンクリート造5階建で、以後長く市民に親しまれたが、老朽化と狭隘のため建替えられることになる。まず別館跡地の1期工事が昭和57年に完成、つづいて旧庁舎跡の2期工事に着手し、同61年1月竣工式が行われた。新市庁舎は、デザイン構想案の指名競技を経て、鉄骨鉄筋コンクリート造8階建で、花崗岩貼りの外観は旧庁舎を継承している。また、手前の淀屋橋は、市電敷設によって明治44年に完成した鉄橋から、御堂筋の建設に伴って、昭和10年に、意匠設計公募による現在の鉄筋コンクリートアーチ橋に架け替えられた(重要文化財指定)。,,,,,大阪市庁舎,,,,,,文化・観光/大阪の昔と今
271004,,大阪府,大阪市,鉾流橋,ホコナガシバシ,,,北区中之島1丁目、西天満2丁目,,34.6941442,135.5047994,,,,,,,上段の写真：大正7年(1918)撮影・中段の写真：平成23年撮影・下段の写真：昭和17年撮影 ◇◇ 天神祭の鉾流しの神事にちなむ橋名がつく鉾流橋は、西天満と中之島を結ぶ橋として、大正7年に架橋された木鉄橋であり、同年に完成した中央公会堂が後ろに写っている。昭和4年に第1次都市計画事業によってゲルバ—式鋼桁橋に架換え、幅員も11mに拡幅された。その後、戦争中の金属供出などにより、高欄・照明灯が撤去され、戦後応急的に復旧された形になっていたが、昭和55年に美装化工事が行われ、中央公会堂とも調和するように整備されている。,,,,,鉾流橋,,,,,,文化・観光/大阪の昔と今
271004,,大阪府,大阪市,大阪府立図書館,オオサカフリツトショカン,,,北区中之島1丁目2,,34.69368,135.5031899,,,,,,,上段の写真：大正初期撮影・中段の写真：平成23年撮影・下段の写真：昭和17年撮影 ◇◇ 明治37年、住友家からの寄付をもとに、中之島公園の一角に、ルネサンス様式の大阪図書館が完成開館した。明治39年には大阪府立図書館と改称されるが、写真は、豊国神社からの図書館本館の全景である。その後、再び住友家からの寄付で、大正11年に左右両翼に閲覧室が増築された。昭和になって、書庫や別館などが増築され、さらに昭和49年には府立夕陽丘図書館の設立にあわせて、府立中之島図書館に改称されるとともに、重要文化財に指定されている。,,,,,大阪府立図書館,,,,,,文化・観光/大阪の昔と今
271004,,大阪府,大阪市,港区の盛土工事（市立運動場付近）,ミナトクノモリドコウジ（シリツウンドウジョウフキン）,,,港区田中3丁目1,,34.6594295,135.4452566,,,,,,,上段の写真：昭和32年(1957)撮影・中段の写真：平成23年撮影・下段の写真：昭和35年撮影 ◇◇ 港地区の復興土地区画整理事業は、戦災で市街のほとんどを焼失し、さらに台風高潮災害に襲われた地盤沈下地域を、全域で2～3mの盛土嵩上げを行うという他に例を見ない事業であった。盛土は写真のマンホールの高さまでで、奥に見えるスタンドは大正12年開設の市立運動場で、このあと昭和36年に廃止となる。ここには、昭和31～43年にかけて国際見本市恒久展示場が建設されるが、その後、見本市会場は昭和60年に、インテックス大阪が南港に建設されて移転する。跡地には八幡屋公園が拡張整備され、平成8年には、丘状の覆蓋地下式の中央体育館とともに大阪プールが建設されている。,,,,,港区の盛土工事（市立運動場付近）,,,,,,文化・観光/大阪の昔と今
271004,,大阪府,大阪市,大阪ガス岩崎橋工場,オオサカガスイワサキバシコウジョウ,,,西区千代崎3丁目,,34.6688921,135.477433,,,,,,,上段の写真：昭和25年(1950)撮影・中段の写真：平成23年撮影・下段の写真：昭和28年撮影 ◇◇ 明治38年に大阪瓦斯岩崎工場が開業し、ここで製造されたガスが市内に送られた。写真の左奥には、交通局庁舎・市電九条車庫なども見える。(のち、岩崎工場は供給所となる)。平成4年、岩崎橋地区に多目的ドームが建設されることになり、大阪ガス・関電・交通局などの区域で土地区画整理事業による基盤整備が進められた。平成9年3月には、多目的全天候ドーム「大阪ドーム」が完成・オープンし、プロ野球をはじめ各種のイベントが開催されている。さらに、商業施設等のほか、ドームシティガスビル・交通局庁舎・消防局庁舎などがつぎつぎと完成し、地下鉄長堀鶴見緑地線につづき，平成21年には阪神なんば線も開通した。,,,,,大阪ガス岩崎橋工場,,,,,,文化・観光/大阪の昔と今
271004,,大阪府,大阪市,淀屋橋南詰の御堂筋（拡幅前）,ヨドヤバシミナミヅメノミドウスジ（カクフクマエ）,,,中央区北浜3丁目,,34.6923302,135.5009834,,,,,,,上段の写真：昭和初期撮影・中段の写真：平成23年撮影・下段の写真：昭和17年撮影 ◇◇ 市役所庁舎から見た淀屋橋南詰の御堂筋拡幅前は、商家の間に狭い淀屋橋筋が見えるが、市電の向こうでは家の立ち退きが始まっている(淀屋橋～本町の区間は昭和9年に拡幅が完成)。大阪の都心を南北に貫く御堂筋は、昭和12年5月に開通した近代大阪最大の記念碑である。幅44m・4列のいちょう並木、その地下を走る高速鉄道—。大阪のメインストリートとなった御堂筋は、交通の動脈としての機能性、大阪経済の発展、都市景観など都市の基盤をなすのみならず、その建設の過程にも市民の絶大なる協力があった。昭和45年からは南行き一方通行となっている。,,,,,淀屋橋南詰の御堂筋（拡幅前）,,,,,,文化・観光/大阪の昔と今
271004,,大阪府,大阪市,拡幅前の淀屋橋筋,カクフクマエノヨドヤバシスジ,,,中央区今橋3丁目,,34.6904906,135.5009208,,,,,,,上段の写真：大正後期撮影・中段の写真：平成23年撮影・下段の写真：昭和17年撮影 ◇◇ かつて淀屋橋南詰から南下する道は、淀屋橋筋という幅6mほどの狭い道であった。写真は淀屋橋筋の北端近くで、日本銀行大阪支店や市役所が見える。もともと御堂筋というのは、北御堂(西本願寺津村別院)と、南御堂(東本願寺難波別院)の門前を通る道につけられた名である。この道路が東側に拡幅されて、昭和10年には長堀川以北が完成し、昭和12年5月に幅員44mの御堂筋全線が開通した。以降、御堂筋は、大阪のメインストリートとして、沿道に高さ31mのビルが整然と建ち並ぶ都市景観が親しまれてきたが、平成7年からは、高さを50mとする新たな基準のもとでのビルが建てられている。,,,,,拡幅前の淀屋橋筋,,,,,,文化・観光/大阪の昔と今
271004,,大阪府,大阪市,旧大阪陸軍造兵廠の戦災跡,キュウオオサカリクグンゾウヘイショウノセンサイアト,,,中央区城見1・2丁目,,34.6911801,135.53236,,,,,,,上段の写真：昭和24年(1949)撮影・中段の写真：平成23年撮影・下段の写真：昭和17年撮影 ◇◇ 昭和20年8月14日、大阪陸軍造兵廠(大阪砲兵工廠)は、米軍の戦略爆撃機B-29の猛爆撃を受け、敷地118haの巨大な兵器工場は壊滅した。昭和27年、造兵廠跡地の接収解除後に、一帯は払い下げられて工場・倉庫などが建てられ、一方で、大阪城公園の整備も進められていく。その後、この26haの区域において大阪ビジネスパーク(OBP)計画が進められる。昭和51年、土地区画整理事業に着手し、スーパーブロックの街区が整えられた。その後、昭和58年に環状線大阪城公園駅と大阪城ホールの開業、大阪城新橋の開通などを追い風に、昭和61年にツイン21と富士通・ニューオータニのビルが完成した。その後も、つづいてKDDI・読売テレビ・キャッスルタワー・住友生命・IMP・クリスタル・東京海上などのビルが完成している。,,,,,旧大阪陸軍造兵廠の戦災跡,,,,,,文化・観光/大阪の昔と今
271004,,大阪府,大阪市,東区役所,ヒガシクヤクショ,,,中央区本町1丁目4,,34.6840063,135.5092212,,,,,,,上段の写真：昭和54年(1979)頃撮影・中段の写真：平成23年撮影・下段の写真：昭和17年撮影 ◇◇ 東区役所は、長く続いた木造庁舎から、昭和10年に建替えられて、鉄筋コンクリート造3階建の庁舎となり、長く本町通の一つの顔となっていた。その後、東区と南区の合区に伴い、平成元年に中央区総合庁舎(久太郎町一)が完成して移転した。跡地には平成13年に18階建の大阪産業創造館が開設し、大阪の中小・ベンチャー企業支援拠点としての事業を展開している。,,,,,東区役所,,,,,,文化・観光/大阪の昔と今
271004,,大阪府,大阪市,国際見本市会館（コクサイホテル）,コクサイミホンイチカイカン（コクサイホテル）,,,中央区本町橋2,,34.6841921,135.5106037,,,,,,,上段の写真：昭和33年(1958)頃撮影・中段の写真：平成23年撮影・下段の写真：昭和35年撮影 ◇◇ 国際見本市会館は、昭和26年に北半部が完成して開設された、見本市会館・ホテルの施設であり、同29年4月に、第1回国際見本市が開催された。これは、ヨーロッパ以外で開催された初の国際見本市で、以降、東京と大阪で交互に開催されることになる。同33年には、会館の南半部が増築された。その後、見本市会場は八幡屋の国際見本市恒久展示場に移り、国際見本市会館の施設はコクサイホテルとなるが、平成11年に閉鎖された。跡地には平成18年に最上階に天然温泉施設をもつ、シティプラザ大阪ホテルが開業している。,,,,,国際見本市会館（コクサイホテル）,,,,,,文化・観光/大阪の昔と今
271004,,大阪府,大阪市,大阪府警本部,オオサカフケイホンブ,,,中央区大手前3丁目1,,34.6838796,135.5204652,,,,,,,上段の写真：昭和54年(1979)頃撮影・中段の写真：平成23年撮影・下段の写真：昭和35年撮影 ◇◇ 大阪府警察本部は、昭和34年に鉄筋コンクリート造5階建の庁舎が完成し、それまで府庁舎等に分散していた各部署が移転した。その後、老朽化に伴い、平成10年から建替えに着工し、平成14年に新庁舎第1期が完成、平成19年に、大阪府警察本部新庁舎全体が完成した。新庁舎は、建築家の黒川紀章設計の9階建(一部10階)で、屋上にヘリポートも設置されている。,,,,,大阪府警本部,,,,,,文化・観光/大阪の昔と今
271004,,大阪府,大阪市,中央体育館,チュウオウタイイクカン,,,中央区大手前4丁目1,,34.6826619,135.5204618,,,,,,,上段の写真：昭和30年代前半撮影・中段の写真：平成23年撮影・下段の写真：昭和35年撮影 ◇◇ 大阪市中央体育館は、市制40周年を迎えた昭和34年、日本生命からの寄付をもとに建設され、東洋一の規模と設備を誇った施設であった。その後、老朽化にともない、平成8年に八幡屋公園へ新築移転した。跡地には平成13年に大阪歴史博物館(13階建)・NHK大阪放送会館(18階建)が一体建築として建設された。この敷地一帯は難波宮跡の一部であることから、地下部分に前期難波宮の倉庫の遺構が保存され、見学できるようになっている。なお、大阪城内にあった市立博物館は平成13年3月に閉館されて、11月に大阪歴史博物館が開館された。,,,,,中央体育館,,,,,,文化・観光/大阪の昔と今
271004,,大阪府,大阪市,四つ橋文楽座,ヨツバシブンラクザ,,,中央区西心斎橋1丁目12,,34.6744863,135.4987675,,,,,,,上段の写真：昭和13年(1938)撮影・中段の写真：平成23年撮影・下段の写真：昭和17年撮影 ◇◇ 四つ橋文楽座は、旧近松座を改築して昭和5年に開場した人形浄瑠璃劇場である。鉄筋コンクリート造の近世式外観で、1・2階の桟敷と椅子席の平土間は約850人収容。昭和20年戦災で焼失し同21年に再興したが、同31年に道頓堀文楽座(のち朝日座と改称)に拠点を移した。その後、文楽協会が発足して、文楽は行政・経済界などの支援をうけるようになり、同59年には、日本橋に国立文楽劇場が開場した。四つ橋文楽座の跡地は、平成23年現在はビル・駐車場となっている。,,,,,四つ橋文楽座,,,,,,文化・観光/大阪の昔と今
271004,,大阪府,大阪市,道頓堀川と戎橋,ドウトンボリガワトエビスバシ,,,中央区道頓堀1丁目,,34.6690621,135.5013722,,,,,,,上段の写真：昭和40年(1965)頃撮影・中段の写真：平成23年撮影・下段の写真：昭和42年撮影 ◇◇ 戎橋は、道頓堀に架かる鉄筋コンクリート造のアーチ橋で、大正14年にそれまでの鉄橋から架け替えられた。繁華街の中心にふさわしい優美なデザインが採り入れられ、アーチ部と高欄部が一体で花崗岩で化粧され、多くの市民や大阪を訪れる観光客に親しまれる場所となった。その後、老朽化が進行したため、道頓堀川水辺整備事業に併せて、デザインコンペのもとに架け替えが行われ、橋上広場からスロープ・階段で水辺の遊歩道に降りられる、新しい戎橋が平成19年に完成した。,,,,,道頓堀川と戎橋,,,,,,文化・観光/大阪の昔と今
271004,,大阪府,大阪市,道頓堀通と角座,ドウトンボリドオリトカドザ,,,中央区道頓堀1丁目4,,34.6684991,135.5034446,,,,,,,上段の写真：昭和4年(1929)撮影・中段の写真：平成23年撮影・下段の写真：昭和17年撮影 ◇◇ この場所に初めて芝居小屋ができてから400年、道頓堀は大阪ミナミの中心で、劇場が並ぶ一大歓楽街として栄えてきた。なかでも、道頓堀五座と称された浪花座・中座・角座・朝日座・弁天座がその中心であった。写真右側の角座は、宝暦8年(1758)に初めて歌舞伎の回り舞台を採用したことでも知られる。戦災で焼失し、戦後は映画館として復興され、昭和33年演芸場として再開場したものの、同59年に閉鎖された。その後、同61年に複合ビルの角座ビルに建替えられ、再開場した映画館も平成19年に閉鎖され、同20年には演芸場のB1角座も閉鎖された。その後、角座ビルも取り壊されている。,,,,,道頓堀通と角座,,,,,,文化・観光/大阪の昔と今
271004,,大阪府,大阪市,市営古市中住宅,シエイフルイチナカジュウタク,,,城東区古市2丁目,,34.7098368,135.5569999,,,,,,,上段の写真：昭和40年(1965)撮影・中段の写真：平成23年撮影・下段の写真：昭和42年撮影 ◇◇ 昭和26年に公営住宅法が制定され、それに基づいて大阪市は公営住宅建設三ヵ年計画を策定、同28年度から本格的に住宅建設を進めた。市営古市中住宅は、昭和30年代に完成した鉄筋コンクリート造等の、800戸を越える大規模住宅団地である。その後、老朽化に伴って順次建替えが行われ、4階建～14階建の変化に富んだ住棟構成の、古市東住宅に生まれ変わっている。,,,,,市営古市中住宅,,,,,,文化・観光/大阪の昔と今
271004,,大阪府,大阪市,大阪市消防学校,オオサカシショウボウガッコウ,,,城東区鴫野西5丁目1,,34.6930499,135.54297,,,,,,,上段の写真：昭和40年代撮影・中段の写真：平成23年撮影・下段の写真：昭和45年撮影 ◇◇ 大阪市消防学校は、昭和26年に、法円坂町から西鴫野の旧鐘紡鴫野工場跡に新築移転(木造2階建)してきたものである。その後昭和51年に複雑・多様化する消防業務への対応を図るために、東大阪市三島に移転して、施設等の充実を図っている。跡地には、昭和54・55年に住宅供給公社・鴫野コーポの8階建・14階建の高層住宅が建設されている。,,,,,大阪市消防学校,,,,,,文化・観光/大阪の昔と今
271004,,大阪府,大阪市,松下精工,マツシタセイコウ,,,城東区今福西6丁目2,,34.7042501,135.5504498,,,,,,,上段の写真：昭和40年代撮影・中段の写真：平成23年撮影・下段の写真：昭和45年撮影 ◇◇ 松下精工は、大正4年に川北電気企業社の電機製造工場として設立、変遷ののち、日本電気精器大阪製造所、昭和31年大阪電気精器となり、同37年に松下精工と改称されたものである。その後、平成14年に松下電器の完全子会社となってのち移転する。跡地には、平成19～21年にかけて、タイムズ・ピーススクエアという15～19階建1000戸の大規模マンションが完成している。,,,,,松下精工,,,,,,文化・観光/大阪の昔と今
271004,,大阪府,大阪市,椿本チエイン,ツバキモトチエイン,,,鶴見区鶴見4丁目17,,34.7043801,135.5666,,,,,,,上段の写真：昭和40年代撮影・中段の写真：平成23年撮影・下段の写真：昭和17年撮影 ◇◇ 昭和16年、椿本チヱィン製作所の工場が鶴見町に完成し、以後、チェーンとコンベア業界のトップメーカーとして発展し、昭和45年には椿本チエインと改称した。のち、第1・第2工場の閉鎖移転が順次進められることになり、平成13年までに、京田辺工場に全面移転した。第1工場跡地には、平成8年に大型商業施設のダイヤモンドシティ・リーファが開業し、のちイオンモール鶴見緑地と改称して、地域の商業拠点となっている。,,,,,椿本チエイン,,,,,,文化・観光/大阪の昔と今
271004,,大阪府,大阪市,市営鴫野第1住宅,シエイシギノダイイチジュウタク,,,城東区鴫野西4丁目,,34.691555,135.5416859,,,,,,,上段の写真：昭和40年代撮影・中段の写真：平成23年撮影・下段の写真：昭和45年撮影 ◇◇ 市営鴫野第1住宅は、昭和24年度に鐘紡鴫野工場跡に建設された木造平屋建の市営住宅である。その後、昭和49年度からの建替事業により、市営住宅は9階建に高層化され、敷地の集約化がすすめられた。それにあわせ地域の整備計画が進められ、写真の手前部分は小学校および公園用地とされ、昭和55年に鴫野小学校が移転開校し、鴫野公園とそのグラウンドも開設された。,,,,,市営鴫野第1住宅,,,,,,文化・観光/大阪の昔と今
271004,,大阪府,大阪市,市電今里車庫,シデンイマザトシャコ,,,東成区大今里西3丁目2,,34.6679235,135.5412385,,,,,,,上段の写真：昭和27年(1952)頃撮影・中段の写真：平成23年撮影・下段の写真：昭和17年撮影 ◇◇ 市電今里車庫は、市電全盛期の昭和2年に開設された。のち昭和44年、大阪市の市電全廃にともなって廃止となり、跡地は昭和47年に市バス東成営業所となった。その後、平成22年に建替えられて、交通局市バス東成車庫・技術事務所と、東成区民センター・東成図書館の8階建複合施設が建設されている。区民センターには、600人収容の大ホールや小ホールのほか、実習室・スタジオなども設けられている。,,,,,市電今里車庫,,,,,,文化・観光/大阪の昔と今
271004,,大阪府,大阪市,今里ロータリー,イマザトロータリー,,,東成区大今里3丁目、大今里南２丁目,,34.6689837,135.5429302,,,,,,,上段の写真：昭和前期撮影・中段の写真：平成23年撮影・下段の写真：昭和17年撮影 ◇◇ 今里交差点は、千日前通・玉造通・今里筋が交わる五叉路の交差点となり、当時は信号処理が難しく、昭和9年、交差点の中心に円形の島を設置して車を周回させる「ロータリー」が設置された。その後、昭和29年に交通調査の結果、交通量の増加によって、歩行者の横断が困難で交通の難所になっているとして、ロータリーを撤去して信号機が設置された。こうして、これ以降普通の五叉路の交差点になっているが、いまでも地元では今里ロータリーと呼ばれている。,,,,,今里ロータリー,,,,,,文化・観光/大阪の昔と今
271004,,大阪府,大阪市,湊町駅,ミナトマチエキ,,,浪速区湊町1丁目,,34.6671459,135.4955598,,,,,,,上段の写真：昭和30年(1955)頃撮影・中段の写真：平成23年撮影・下段の写真：昭和35年撮影 ◇◇ 湊町駅は、大阪鉄道のちの国鉄関西本線の始発駅として、明治22年に開業された。その後、貨物駅の機能が大きくなってくるが、のち、貨物取扱量の減少から、昭和60年に貨物の取扱いが廃止された。以降、ヤード跡地を中心とした約17.5haの区域について、関西国際空港と直結する特性をいかした整備プロジェクトが進められる。湊町駅はJR難波駅と改称され、連立事業により、平成8年OCATビル(複合交通センター)に地下駅として開業。街は「ルネッサなんば」と名づけられ、中核施設のOCATビルのほか、本格的な音楽ホールをもつ湊町リバープレイス、商業施設・マンションなどが完成している。,,,,,湊町駅,,,,,,文化・観光/大阪の昔と今
271004,,大阪府,大阪市,環状線今宮駅付近,カンジョウセンイマミヤエキフキン,,,浪速区大国3丁目,,34.6539027,135.4930104,,,,,,,上段の写真：昭和38年(1963)頃撮影・中段の写真：平成23年撮影・下段の写真：昭和39年撮影 ◇◇ 国鉄大阪環状線は、昭和36年4月に、天王寺～西九条間がつながり、今宮駅もこの時開設された(同39年3月環状運転開始)。以来、この付近は盛土区間となっていたが、その後、湊町開発の関連事業として、JR関西本線連続立体交差事業と今宮土地区画整理事業が進められることとなる。これによって、平成8年に、JR難波駅(旧湊町駅)の地下化とあわせて、今宮駅付近の高架化が完成した。,,,,,環状線今宮駅付近,,,,,,文化・観光/大阪の昔と今
271004,,大阪府,大阪市,市立社会福祉会館,シリツシャカイフクシカイカン,,,天王寺区東高津町12,,34.66643,135.5218201,,,,,,,上段の写真：昭和34年(1959)撮影・中段の写真：平成23年撮影・下段の写真：昭和35年撮影 ◇◇ 昭和34年、東高津町に市立社会福祉会館が開設され、福祉団体の活動や、各種相談等が行われてきた。昭和62年に建替えられて、市立社会福祉センターと改称され、大小の会議室利用、福祉関係団体の活動拠点、各種の相談事業や情報提供などの業務が行われている。24階建の上部は住宅供給公社・アーバンヒル上町となっている。,,,,,市立社会福祉会館,,,,,,文化・観光/大阪の昔と今
271004,,大阪府,大阪市,生野区役所,イクノクヤクショ,,,生野区勝山南3丁目1,,34.6539023,135.5342141,,,,,,,上段の写真：昭和33年(1958)撮影・中段の写真：平成23年撮影・下段の写真：昭和35年撮影 ◇◇ 生野区役所は、戦後建てられた木造庁舎の狭隘化に伴い、昭和32年に鉄筋コンクリート造3階建の庁舎に建替えられた。その後の老朽化・狭隘化により、平成17年には、鉄筋コンクリート造6階建の庁舎に建替えられた。新庁舎には、水道局サービスステーションを併設するとともに、別棟になっていた保健福祉センターも庁舎内となって、敷地の集約化が図られている。,,,,,生野区役所,,,,,,文化・観光/大阪の昔と今
271004,,大阪府,大阪市,大阪気象台,オオサカキショウダイ,,,生野区勝山南3丁目3,,34.6535602,135.5359503,,,,,,,上段の写真：昭和37年(1962)撮影・中段の写真：平成23年撮影・下段の写真：昭和35年撮影 ◇◇ 昭和8年、勝山通の府立農学校跡に、府立大阪測候所が新築移転された。レーダー塔がそびえる鉄筋コンクリート造の建物であった。国営移管のため、昭和13年に大阪測候所は中央気象台大阪支台となり、さらに翌年、「大阪管区気象台」と改称される。その後昭和43年には、大阪合同庁舎2号館の完成に伴い、大阪管区気象台は法円坂町に移転し、35年間にわたった勝山通での気象観測の幕を閉じた。跡地は、御勝山南公園となり、気象台跡の碑が建てられている。,,,,,大阪気象台,,,,,,文化・観光/大阪の昔と今
271004,,大阪府,大阪市,水道局巽配水場,スイドウキョクタツミハイスイジョウ,,,生野区巽東4丁目11,,34.64468,135.5589402,,,,,,,上段の写真：昭和45年(1970)撮影・中段の写真：平成23年撮影・下段の写真：昭和49年撮影 ◇◇ 大阪市の水道拡張事業として、昭和32年に巽配水場が完成し、庭窪浄水場から、発展の著しい市内東南部や南部方面への配水を担ってきた。その後、市有地の有効活用として、巽配水場の配水池上部を利用して、平成8年に巽東緑地(4.8ha)が開設された。ゆったりしたスペースに、ウォーキングロード・噴水・広場・グラウンドなどが整備され、市民に親しまれる空間となっている。,,,,,水道局巽配水場,,,,,,文化・観光/大阪の昔と今
271004,,大阪府,大阪市,木津川飛行場跡,キヅガワヒコウジョウアト,,,大正区船町2丁目1,,34.6280119,135.4591242,,,,,,,上段の写真：昭和初期撮影・中段の写真：平成23年撮影・下段の写真：昭和17年撮影 ◇◇ 大正12年に、木津川口に水陸両用の木津川飛行場として開場され、船町に拡張整備のうえ、昭和4年に公共用に指定されて「大阪飛行場」となった。しかし、都心から交通の便が悪いうえ、周辺工場の煙霧にも悩まされていた。大阪市が進めた南港飛行場計画も、最終的に国の同意が得られないまま、昭和14年1月、大阪第2飛行場が伊丹に開設され、大阪(木津川)飛行場は閉鎖されることになる。跡地はその後、中山製鋼所の工場用地となっており、格納庫の一部とともに、木津川大橋のたもとに碑が建てられている。,,,,,木津川飛行場跡,,,,,,文化・観光/大阪の昔と今
271004,,大阪府,大阪市,大日本紡績津守工場,ダイニホンボウセキツモリコウジョウ,,,西成区津守1丁目13,,34.6464163,135.4821505,,,,,,,上段の写真：昭和10年代撮影・中段の写真：平成23年撮影・下段の写真：昭和17年撮影 ◇◇ 大日本紡績津守工場は、明治42年5月に尼崎紡績津守工場として西成郡津守村に開業し、大正7年合併により大日本紡績津守工場となった。昭和20年戦災をうけ、同27年には工場が閉鎖される。跡地はその後、大阪臨海工業用水道組合(のち企業団)津守浄水場・工業用水道西成浄水場・ニチボーリバーサイドプール(～昭和43年)などとなり、さらに、昭和49年に府立西成高校、同62年に西成公園が開設された。工業用水道浄水場は平成18年度末までに廃止されている。,,,,,大日本紡績津守工場,,,,,,文化・観光/大阪の昔と今
271004,,大阪府,大阪市,木津川千本松渡し,キヅガワセンボンマツワタシ,,,大正区南恩加島1丁目,,34.6326923,135.4753302,,,,,,,上段の写真：昭和42年(1967)頃撮影・中段の写真：平成23年撮影・下段の写真：昭和45年撮影 ◇◇ 木津川の千本松渡しは、大正区南恩加島と西成区南津守を結ぶ市営の渡船である。昭和48年に、両岸に2階建ループ式の高架坂路をもつ、橋長323.5m・桁下34mの千本松大橋が完成し、その形からめがね橋とも呼ばれている。なお、歩行者・自転車などの便から、架橋後も千本松渡しは存続されることになり、今も通勤・通学の足として多くの住民に利用され続けている。,,,,,木津川千本松渡し,,,,,,文化・観光/大阪の昔と今
271004,,大阪府,大阪市,阿倍野再開発地区,アベノサイカイハツチク,,,阿倍野区阿倍野筋1丁目,,34.6454755,135.5117618,,,,,,,上段の写真：昭和50年代撮影・中段の写真：平成23年撮影・下段の写真：昭和45年撮影 ◇◇ 阿部野橋交差点の南西側の一帯は、大阪の南の玄関口である阿倍野ターミナルに近接しながら、老朽化した商業施設・住宅が混在・密集して、再開発が急務の状況であった。昭和51年に、阿倍野地区市街地再開発事業の都市計画決定以来、順次区域を拡大して、平成6年までに約28ha全域の計画決定を行った。これまで、あべのマルシェ・ベルタ・ルシアス・メディックス・グラントゥール・niniなど、多くの施設建築物が完成してきた。平成23年には、あべの再開発地区の中核となる、モール型ショッピングセンター「あべのキューズタウン」がオープンし、高い集客力で賑わいをみせている。,,,,,阿倍野再開発地区,,,,,,文化・観光/大阪の昔と今
271004,,大阪府,大阪市,桃山中学校,モモヤマチュウガッコウ,,,阿倍野区昭和町3丁目1,,34.6291802,135.5173,,,,,,,上段の写真：大正元年(1926)頃撮影・中段の写真：平成23年撮影・下段の写真：昭和17年撮影 ◇◇ 大正元年、当時の田辺村北田辺に桃山中学校が、純英国式の校舎を新築し移転してきた。昭和20年戦災で全焼したため、変遷ののち、同24年に桃山学院高校として現在地に復帰した。同34年、桃山学院大学を開設するが、同46年に大学は堺市登美丘キャンパスに移転した(平成17年に和泉市へ再移転)。その後平成13年に高校の新校舎が完成し、同21年には学院創立125周年の記念体育館も完成した。さらに、中高一貫教育への要望の高まりを受けて、同20年、桃山学院中学校が再開設されている。,,,,,桃山中学校,,,,,,文化・観光/大阪の昔と今
271004,,大阪府,大阪市,大阪大学南校,オオサカダイガクミナミコウ,,,阿倍野区王子町4丁目1,,34.6260549,135.509938,,,,,,,上段の写真：昭和30年(1955)頃撮影・中段の写真：平成23年撮影・下段の写真：昭和17年撮影 ◇◇ 大正11年に旧制の大阪高等学校が開設され、鉄筋コンクリート造3階建の校舎が新築された。昭和24年大阪大学に包括されて、大阪大学一般教養部南校となるが、昭和35年北校と統合されることになる。南校の跡地には、昭和37～40年にかけ、住宅公団阪南団地の5～7階建の住宅が800戸以上建設された。その後、平成21年に建替えられて、東側が8～13階建のサンヴェリエあべの阪南団地となり、旧敷地の西側・南側については、公募による土地譲渡が実施された。,,,,,大阪大学南校,,,,,,文化・観光/大阪の昔と今
271004,,大阪府,大阪市,大阪府女子専門学校,オオサカフジョシセンモンガッコウ,,,住吉区帝塚山東2丁目2,,34.6204925,135.5024124,,,,,,,上段の写真：昭和初期頃撮影・中段の写真：平成23年撮影・下段の写真：昭和17年撮影 ◇◇ 大阪府女子専門学校は、大正14年に市域に編入された帝塚山東(旧住吉村帝塚山)に校舎を新築して移転開校された。昭和24年に府立大阪女子大学となって、その後、同51年には堺市大仙町に移転された。旧大学施設は、府立看護短期大学などを経て、校舎は平成10年府立貿易専門学校となるが、同16年に廃止となり、また旧大学図書館は、昭和60年から大阪府公文書館として利用されている。跡地南側には、平成11年に特別養護老人ホーム・ケアハウス等が建設されている。,,,,,大阪府女子専門学校,,,,,,文化・観光/大阪の昔と今
271004,,大阪府,大阪市,関西電力大阪発電所,カンサイデンリョクオオサカハツデンショ,,,住之江区平林北1丁目2,,34.622137,135.4573165,,,,,,,上段の写真：昭和40年(1965)頃撮影・中段の写真：平成23年撮影・下段の写真：昭和42年撮影 ◇◇ 関西電力大阪発電所は、関電の電力の半分近くを消費する大需要地である、大阪地区における発電所として建設されたものである。昭和34～35年に、1～4号機(合計62.4万kw)が運転開始された。のち平成15年に廃止となり、跡地24haについて、府・市の産業集積促進地域の指定をうけた。平成19年に、4haに旭硝子大阪事業所が開業、14.7haを松下電池のリチウム二次電池の大型工場とし、パナソニックエナジー社住之江工場が、平成22年に完成開業している。,,,,,関西電力大阪発電所,,,,,,文化・観光/大阪の昔と今
271004,,大阪府,大阪市,柴谷平野線（南港通）,シバタニヒラノセン（ナンコウドオリ）,,,東住吉区針中野1丁目,,34.6212348,135.5335909,,,,,,,上段の写真：昭和42年(1967)撮影・中段の写真：平成23年撮影・下段の写真：昭和45年撮影 ◇◇ 都市計画道路・柴谷平野線(南港通)の針中野付近の工事中の写真であり、正面に近鉄南大阪線の電車が見える。また、拡幅道路予定線の右手は南海電鉄平野線である。柴谷平野線は、昭和47年に全線開通する。その後、南海平野線の軌道敷を利用して、同55年に、阪神高速道路松原線と地下鉄谷町線の天王寺～八尾南間が開通、近鉄線の手前付近に駒川中野駅が開業し、これに伴い南海平野線は廃止となった。,,,,,柴谷平野線（南港通）,,,,,,文化・観光/大阪の昔と今
271004,,大阪府,大阪市,清掃局東住吉工場,セイソウキョクヒガシスミヨシコウジョウ,,,平野区瓜破南1丁目3,,34.5964533,135.549423,,,,,,,上段の写真：昭和46年(1971)頃撮影・中段の写真：平成23年撮影・下段の写真：昭和49年撮影 ◇◇ 清掃局東住吉工場は、昭和46年に大阪市で6番目に建設された、機械式焼却炉を備えた工場である。焼却能力は600トン/日で、粗大ごみ破砕機を備え、悪臭・ばい煙・汚水・騒音など公害の少ない最新の設備を整えている。平成15年、建替えられて旧工場の西側に、特徴ある曲面屋根の柔らかさのあるデザインの、最新設備を備えた新工場が完成し、焼却能力は900トン/日となった。,,,,,清掃局東住吉工場,,,,,,文化・観光/大阪の昔と今
271004,,大阪府,大阪市,弁天町,ベンテンチョウ,,,港区弁天1丁目2,,34.6698301,135.4602702,,,,,,,上段の写真：昭和42年(1967)撮影・中段の写真：平成23年撮影・下段の写真：昭和45年撮影 ◇◇ 戦災と台風高潮によって一望廃墟となった、港地区の復興区画整理事業において、散在していた市有地が、弁天町駅前に集約して換地された。その後、マスタープランで副都心と位置づけられながら、国際見本市の第2会場や、各種イベント会場、駐車場などに利用されていた。このようななかで、東西都市軸の西の拠点として、公有地の有効利用のため民間活力を導入する、弁天町駅前開発土地信託事業が実施された。この事業により、平成2～4年に、50階建超高層のホテル・オフィス・マンション・アミューズメントなどの「オーク200」が完成し、弁天町駅前地区は大きな変貌を遂げた。,,,,,弁天町,,,,,,文化・観光/大阪の昔と今
271004,,大阪府,大阪市,大阪市立都島図書館,オオサカシリツミヤコジマトショカン,,,都島区中野町2-16-25,,34.7008862,135.5277813,,,,,,,,,,,,大阪市立都島図書館,06-6354-3229,,,,http://www.oml.city.osaka.jp/info/52miyakojima/,文化・観光/図書館
271004,,大阪府,大阪市,愛珠幼稚園,アイシュヨウチエン,,,中央区今橋3丁目1番11号,,34.6911092,135.5028086,,,,,,,登録年月日：平成22年7月23日　概要：明治34年（1901年）竣工。園舎としてはめずらしい御殿風の建築様式。築後100年以上経ってもなお現役の木造園舎は日本最古である。遊戯室は吹き抜けになっている。天井は寺院などにみられる格天井。建設当時からのシャンデリアが今も飾られている。園舎は国の重要文化財に指定されている。,,,,,愛珠幼稚園,,,,,,文化・観光/都市景観資源
271004,,大阪府,大阪市,新井ビル,アライビル,,,中央区今橋2丁目1番1号,,34.6907358,135.5063686,,,,,,,登録年月日：平成22年7月23日　概要：大正11年（1922年）、大日本報徳銀行大阪支店として建てられ、新井証券を経て新井ビルとなる。外観は完全な左右対称で、茶褐色のタイルの外壁が街に馴染んでいる。国の登録有形文化財に指定されている。,,,,,新井ビル,,,,,,文化・観光/都市景観資源
271004,,大阪府,大阪市,大阪ガスビルディング,オオサカガスビルディング,,,中央区平野町4丁目1番2号,,34.6879257,135.5002005,,,,,,,登録年月日：平成22年7月23日　概要：昭和8年（1933年）に御堂筋とともに誕生した。外壁は１・２階を石材で黒くまとめ、上部は白色のタイル張りとなっている。昭和41年（1966年）に北館が増築され、現在も大阪ガスビルとして使用されている。国の登録有形文化財に指定されている。,,,,,大阪ガスビルディング,,,,,,文化・観光/都市景観資源
271004,,大阪府,大阪市,大阪証券取引所ビル,オオサカショウケントリヒキジョビル,,,中央区北浜1丁目8番16号,,34.6912968,135.5072586,,,,,,,登録年月日：平成22年7月23日　概要：昭和10年（1935年）に完成した旧大阪証券ビル市場館は、ビルの老朽化に伴い、平成16年（2004年）、近代的なガラス張りの超高層ビルに建替えられた。エントランスのドーム部分は当時のままの姿で残されており、ドーム内部の広間と外観は再現保存されている。,,,,,大阪証券取引所ビル,,,,,,文化・観光/都市景観資源
271004,,大阪府,大阪市,大阪城公園,オオサカジョウコウエン,,,中央区大阪城,,34.6856805,135.52912,,,,,,,登録年月日：平成22年7月23日　概要：大阪城公園は、都心に位置する開設面積約105.6haの史跡を中心とした広大な歴史公園である。外濠に囲まれた73.4haは国の特別史跡に指定されており、多門櫓・千貫櫓など13棟の重要文化財を有するほか、大阪城天守閣や約600本の桜を楽しめる西の丸庭園、約100品種、約1300本の梅が咲き誇る梅林や市民の森・記念樹の森などがあり、都市に貴重で豊かな緑を提供している。,,,,,大阪城公園,,,,,,文化・観光/都市景観資源
271004,,大阪府,大阪市,大阪松竹座,オオサカショウチクザ,,,中央区道頓堀1丁目9番19号,,34.6683934,135.5008891,,,,,,,登録年月日：平成22年7月23日　概要：大正12年（1923年）に関西初の洋式劇場として開館。豪華な装飾のある建物は、道頓堀の顔として人々に親しまれてきた。平成9年（1997年）、建物の正面全体に広がる優美な装飾レリーフ※をそのまま残し新築開場する。多くの劇場でにぎわっていた大阪道頓堀の文化機能を今でも担い続けている。 　※レリーフ：浮き彫りまたは浮き彫り細工。,,,,,大阪松竹座,,,,,,文化・観光/都市景観資源
271004,,大阪府,大阪市,大阪府庁本館,オオサカフチョウホンカン,,,中央区大手前2丁目1番22号,,34.6863542,135.520036,,,,,,,登録年月日：平成22年7月23日　概要：大正15年（1926年）竣工。現行の都道府県庁舎としては最も古い。外壁に石材と白い擬石タイルを広く用い、勾配のない水平の屋根とした外観意匠に特色があり、正面玄関の車寄せには個性的な装飾が施されている。大理石仕上げの床や階段をもつ3層吹き抜けの玄関ホールは、映画やドラマのロケにも利用されている。,,,,,大阪府庁本館,,,,,,文化・観光/都市景観資源
271004,,大阪府,大阪市,北浜レトロビルヂング,キタハマレトロビルヂング,,,中央区北浜1丁目1番26号,,34.6917201,135.5074782,,,,,,,登録年月日：平成22年7月23日　概要：明治45年(1912年)、株仲買商の商館として建設。戦後は建築資材の専門商社の本社社屋として利用されたが、平成9年（1997年）、大規模な保存改修工事を経て、建築当時の雰囲気そのままに再生された。２階北側の窓からは土佐堀川越しに中之島公園のバラ園を見渡すことができる。国の登録有形文化財に指定されている。,,,,,北浜レトロビルヂング,,,,,,文化・観光/都市景観資源
271004,,大阪府,大阪市,クリスタルタワー,クリスタルタワー,,,中央区城見1丁目2番27号,,34.6921241,135.5285426,,,,,,,登録年月日：平成22年7月23日　概要：平成2年（1990年）、大阪ビジネスパークの西側、二つの川が合流する場所に完成した超高層ビル。「中之島からの遠望が新しい水都大阪の代表的な都市景観である」として第12回大阪まちなみ賞※を受賞している。  ※大阪まちなみ賞：景観上優れた建物やまちなみに対して表彰するもので、大阪市・大阪府・（社）大阪府建築士会の3者の共催により昭和56年から実施。,,,,,クリスタルタワー,,,,,,文化・観光/都市景観資源
271004,,大阪府,大阪市,高津宮（高津神社）,コウヅグウ（コウヅジンジャ）,,,中央区高津1丁目1番29号,,34.6685316,135.5140552,,,,,,,登録年月日：平成22年7月23日　概要：平安初期、清和天皇が仁徳天皇の徳政を慕い、難波高津宮（たかつのみや）旧跡の地に社殿を築いてお祀りしたのが始まり。豊臣秀吉が大阪城築城に際して現在の地に移した。桜まつりや夏祭りなどの祭りが行われている。また、古典落語や文楽の舞台となっており、古くより人々に親しまれていることがうかがえる。,,,,,高津宮（高津神社）,,,,,,文化・観光/都市景観資源
271004,,大阪府,大阪市,高麗橋,コウライバシ,,,中央区東高麗橋・高麗橋1丁目間,,34.6893435,135.5095419,,,,,,,登録年月日：平成22年7月23日　概要：慶長9年（1604年）、立派な擬宝珠（ぎぼし）をもつ橋として架けられた高麗橋は、江戸時代に12あった公儀橋（幕府直轄管理の橋）のなかでも特に重要視され、西詰には幕府の高札（公報板）が立てられた。西日本各地への街道の起点とされ、これを表す里程元標が置かれた。その跡を示す碑が東詰め北側に立っている。,,,,,高麗橋,,,,,,文化・観光/都市景観資源
271004,,大阪府,大阪市,芝川ビル,シバカワビル,,,中央区伏見町3丁目3番3号,,34.6890466,135.5018781,,,,,,,登録年月日：平成22年7月23日　概要：昭和2年（1927年）竣工。昭和4年（1929年）、ビル内に「芝蘭社家政学園」を開校。戦後はテナントビルとして使われている。竜山石※をふんだんに用いた彫りの深い装飾が施されている。国の登録有形文化財に指定されている。 　※竜山石：兵庫県高砂市に産する石材名。,,,,,芝川ビル,,,,,,文化・観光/都市景観資源
271004,,大阪府,大阪市,浄土真宗本願寺派　本願寺津村別院（北御堂）,ジョウドシンシュウホンガンジハ　ホンガンジツムラベツイン（キタミドウ）,,,中央区本町4丁目1番3号,,34.6850626,135.4998057,,,,,,,登録年月日：平成22年7月23日　概要：大阪の発祥は本願寺の寺内町形成に由来するが、本願寺は信長との石山合戦で大坂を退去。残った門徒たちが天満に集会所を設け、慶長２年（1597年）の町割改革により現在の地に移転。後に津村別院となる。明治元年（1868年）に大阪鎮台が置かれ、また行在所となり明治天皇の行幸が行われた。大阪大空襲により焼失した本堂は、昭和39年（1964年）近代的なコンクリート造で再建された。,,,,,浄土真宗本願寺派　本願寺津村別院（北御堂）,,,,,,文化・観光/都市景観資源
271004,,大阪府,大阪市,真宗大谷派　難波別院（南御堂）,シンシュウオオタニハ　ナンバベツイン（ミナミミドウ）,,,中央区久太郎町4丁目1番11号,,34.6805536,135.4993813,,,,,,,登録年月日：平成22年7月23日　概要：文禄5年（1596年）大谷本願寺として大坂渡辺の地に建立。慶長3年（1598年）大阪城の拡張により現在の地に移転。後に難波別院となり、「北御堂」と呼ばれた津村別院とともに「南御堂」と称されている。戦時中の大阪大空襲により焼失した本堂は、昭和36年（1961年）二重屋根で再建された。屋根裏の垂木を省略した簡素な表現はコンクリート建築の特性を活かしたデザイン。,,,,,真宗大谷派　難波別院（南御堂）,,,,,,文化・観光/都市景観資源
271004,,大阪府,大阪市,船場ビルディング,センバビルディング,,,中央区淡路町2丁目5番8号,,34.6870079,135.5041729,,,,,,,登録年月日：平成22年7月23日　概要：三休橋筋の拡張を機に大正14年（1925年）竣工。 オフィスと住宅をあわせもつビルとして建設され、注目を集めた。また、船場という場所柄から、装飾性のみでなく、トラックや荷馬車などを引き込むのに便利な機能性を重んじた設計が大きな特徴となっている。国の登録有形文化財に指定されている。,,,,,船場ビルディング,,,,,,文化・観光/都市景観資源
271004,,大阪府,大阪市,大丸心斎橋店,ダイマルシンサイバシテン,,,中央区心斎橋筋1丁目7番1号,,34.6731358,135.5009497,,,,,,,登録年月日：平成22年7月23日　概要：大正14年（1925年）、第1期、第2期工事により心斎橋側が完成し、心斎橋筋に面する中央玄関上部に巨大なピーコックレリーフが掲げられた。昭和8年（1933年）には御堂筋の拡張整備に合わせて、御堂筋側が増築され高さ100尺（約30ｍ）の外観が築かれた。,,,,,大丸心斎橋店,,,,,,文化・観光/都市景観資源
271004,,大阪府,大阪市,玉造稲荷神社,タマツクリイナリジンジャ,,,中央区玉造2丁目3番8号,,34.6776626,135.5300733,,,,,,,登録年月日：平成22年7月23日　概要：社伝によれば垂仁天皇18年（紀元前12年）の秋にお祀りしたのが始まり。日本書紀に記された玉の故郷に鎮座し、豊臣・徳川時代には大阪城の鎮守神として崇められた。だんご茶会や玉造黒門越瓜食味祭（たまつくりくろもんしろうりしょくみさい）などの行事が行われている。,,,,,玉造稲荷神社,,,,,,文化・観光/都市景観資源
271004,,大阪府,大阪市,適塾,テキジュク,,,中央区北浜3丁目3番8号,,34.691247,135.503233,,,,,,,登録年月日：平成22年7月23日　概要：医師・蘭学者であった緒方洪庵が開いた蘭学塾。洪庵は、天保9年（1838年）、大坂の瓦町に適塾を開いたが、弘化2年（1845年）に過書町（現在の場所）に移転した。幸運にも戦災を免れ、江戸時代後期の町家の姿を現在に伝えている。１階は、洪庵の書斎や家族部屋などがあり、2階には塾生大部屋などがある。国の史跡及び重要文化財に指定されている。,,,,,適塾,,,,,,文化・観光/都市景観資源
271004,,大阪府,大阪市,道頓堀,ドウトンボリ,,,中央区道頓堀1丁目、宗右衛門町、心斎橋筋2丁目,,34.668949,135.5040543,,,,,,,登録年月日：平成22年7月23日　概要：慶長17年（1612年）、安井道頓らが私財を投じて運河開削に着工、元和元年（1615年）完成。道頓堀川にかかる戎橋は昼夜を問わず多くの人々でにぎわっている。道頓堀川の水辺には道頓堀川遊歩道「とんぼりリバーウォーク」の整備が順次進められており、平成16年（2004年）には戎橋から太左衛門橋までの区間が完成し、現在では戎橋から日本橋までの区間で供用開始している。,,,,,道頓堀,,,,,,文化・観光/都市景観資源
271004,,大阪府,大阪市,道修町の界隈・古い家屋,ドショウマチノカイワイ・フルイカオク,,,中央区道修町1丁目～3丁目,,34.6882223,135.5088695,,,,,,,登録年月日：平成22年7月23日　概要：道修町は薬業関連会社が多く、江戸時代からこのあたり一帯は、町の人たちが子弟や丁稚のためにお金を出し合って塾や学校をつくり、商売と勉学を両立させていた。戦災を逃れたこの界隈には老舗の看板を掲げる建物が今も現役で残っている。,,,,,道修町の界隈・古い家屋,,,,,,文化・観光/都市景観資源
271004,,大阪府,大阪市,南海ビル（難波駅・髙島屋）,ナンカイビル（ナンバエキ・タカシマヤ）,,,中央区難波5丁目1番5号,,34.6643423,135.5020311,,,,,,,登録年月日：平成22年7月23日　概要：御堂筋の建設を前後して、昭和7年（1932年）、ミナミの玄関口に4代目の南海難波駅が完成。現在もミナミのターミナルの役割を果たしている。ビルの外壁はすべてテラコッタ※が張り詰められ、連続する半円アーチと古典的な飾りのある円柱の壁面が特徴的である。当時から冷暖房完備されたターミナルビルには、現在もテナントとして髙島屋が営業している。  　※テラコッタ：素焼きの陶器焼き。,,,,,南海ビル（難波駅・髙島屋）,,,,,,文化・観光/都市景観資源
271004,,大阪府,大阪市,日本基督教団浪花教会,ニホンキリストキョウダンナニワキョウカイ,,,中央区高麗橋2丁目6番2号,,34.689475,135.503869,,,,,,,登録年月日：平成22年7月23日　概要：明治10年（1877年）、日本人によって設立された最初の自給教会「浪花公会」が前身。教会堂は昭和5年（1930年）に建設された。礼拝室にある外観からでもわかる大きなアーチ窓のステンドグラスが印象的である。,,,,,日本基督教団浪花教会,,,,,,文化・観光/都市景観資源
271004,,大阪府,大阪市,八軒家浜船着場跡の近くにある石畳の階段,ハチケンヤハマフナツキバアトノチカクニアルイシダダミノカイダン,,,中央区石町1丁目,,34.6905885,135.5161074,,,,,,,登録年月日：平成22年7月23日　概要：この付近は、古くは渡辺の津と呼ばれる船着場で、熊野街道の起点でもあった。平安時代中期から鎌倉時代にかけては「蟻の熊野詣」といわれ、人々はここで上陸して熊野に向かったといわれる。さらに江戸時代には、八軒家浜と呼ばれ、三十石船がつき、人の往来だけでなく、交易の場としてもにぎわった。,,,,,八軒家浜船着場跡の近くにある石畳の階段,,,,,,文化・観光/都市景観資源
271004,,大阪府,大阪市,原田産業（大阪本社ビル）,ハラダサンギョウ（オオサカホンシャビル）,,,中央区南船場2丁目10番14号,,34.6769667,135.5037053,,,,,,,登録年月日：平成22年7月23日　概要：昭和3年（1928年）竣工。大きな四角い窓とアーチ型の入口の対比がはっきりしたデザインが特徴的。窓からは吹き抜けの階段が臨める。貿易商社原田産業の本社屋として設計建築され、現在も同社の本社ビルとして使い続けられている。,,,,,原田産業（大阪本社ビル）,,,,,,文化・観光/都市景観資源
271004,,大阪府,大阪市,伏見町付近の街並み（青山ビル・伏見ビル）,フシミチョウフキンノマチナミ（アオヤマビル・フシミビル）,,,中央区伏見町2丁目2番,,34.6889934,135.5060748,,,,,,,登録年月日：平成22年7月23日　概要：伏見町には、青山ビルや伏見ビルといった戦前の建築物が当時と変わらない姿で今も存在している。青山ビルは大正10年（1921年）に洋館の邸宅として建てられ、ビル全体を覆う蔦が四季折々の姿を見せる。伏見ビルは大正12年（1923年）にホテルとして建てられ、円形の飾り窓などの外観が特徴的である。両ビルとも、国の登録有形文化財に指定されている。,,,,,伏見町付近の街並み（青山ビル・伏見ビル）,,,,,,文化・観光/都市景観資源
271004,,大阪府,大阪市,法善寺水かけ不動尊,ホウゼンジミズカケフドウソン,,,中央区難波1丁目2番16号,,34.6678652,135.5026172,,,,,,,登録年月日：平成22年7月23日　概要：法善寺の西向不動尊。苔に包まれてきれいな緑色になったお不動さんは「水かけ不動」として親しまれている。お供え物を持ち合わせていなかった参拝客が、思わず水をかけて手を合わせたのが始まりだと伝えられている。,,,,,法善寺水かけ不動尊,,,,,,文化・観光/都市景観資源
271004,,大阪府,大阪市,三津寺,ミツデラ,,,中央区心斎橋筋2丁目7番12号,,34.6705297,135.5006317,,,,,,,登録年月日：平成22年7月23日　概要：奈良時代の難波宮遷都の際に、僧の行基が開いたと伝えられる。寺院の台所や住居部分である庫裡は、昭和8年（1933年）の御堂筋拡張工事のときに新築されたもの。文化5年（1808年）に建てられた木造の本堂は、戦災を無事免れ、庫裡ともども往時の姿をそのまま保っている。,,,,,三津寺,,,,,,文化・観光/都市景観資源
271004,,大阪府,大阪市,御堂筋,ミドウスジ,,,中央区北浜3丁目、4丁目～難波5丁目,,34.6676849,135.5003171,,,,,,,登録年月日：平成22年7月23日　概要：大阪の都心部を南北に貫くメインストリートであり、美しい景観を有する大阪のシンボルロードでもある。昭和12年（1937年）完成。沿道建物の高さは約31ｍまでに制限され、整然とした景観がつくられた。平成7年（1995年）には、御堂筋沿いの壁面の4ｍ後退などを条件に、軒高50ｍ、最大高さ60ｍまで緩和された。銀杏並木は大阪みどりの百選や大阪市指定文化財に指定されている。,,,,,御堂筋,,,,,,文化・観光/都市景観資源
271004,,大阪府,大阪市,もと大阪市立博物館,モトオオサカシリツハクブツカン,,,中央区大阪城1番1号,,34.6858748,135.5265429,,,,,,,登録年月日：平成22年7月23日　概要：昭和6年（1931年）に陸軍第4師団司令部の建物として竣工。終戦後は駐留軍施設として接収された。昭和23年（1948年）、大阪市警察本部として返還を受け、その後、府警本部となる。昭和35年（1960年）には博物館として一部開館し、2年後に全面開館した。平成13年（2001年）、大阪歴史博物館の開館に先立ち閉館した。,,,,,もと大阪市立博物館,,,,,,文化・観光/都市景観資源
271004,,大阪府,大阪市,ルポンドシエルビル（大林組旧本店ビル）,ルポンドシエルビル（オオバヤシグミキュウホンテンビル）,,,中央区北浜東6番9号,,34.6903887,135.5110113,,,,,,,登録年月日：平成22年7月23日　概要：大正15年（1926年）大林組の四代目本店ビルとして竣工。平成19年（2007年）に、耐震補強を含む全館の改修工事が行われ、南向いにある大阪大林ビルに入居していたフレンチレストラン、大林組歴史館などが当ビルに移転した。ビル中央のアーチ部が印象的である。,,,,,ルポンドシエルビル（大林組旧本店ビル）,,,,,,文化・観光/都市景観資源
271004,,大阪府,大阪市,梅田スカイビルと新梅田シティ「花野」「中自然の森」,ウメダスカイビルトシンウメダシティ「ハナノ」「ナカシゼンノモリ」,,,北区大淀中1丁目1番88号,,34.7053018,135.4905365,,,,,,,登録年月日：平成22年3月5日　概要：平成5年（1993年）竣工。地上40階建ての2棟のビルを地上170ｍの上部でつないだ連結超高層で、屋上には視界360度の空中庭園展望台がある。両棟を行き来するため22階に連絡通路が設けられている。敷地面積の約60％が公開空地として「中自然の森」、「花野」等の庭園となっている。,,,,,梅田スカイビルと新梅田シティ「花野」「中自然の森」,,,,,,文化・観光/都市景観資源
271004,,大阪府,大阪市,扇町キッズパーク（関西テレビ放送）,オオギマチキッズパーク（カンサイテレビホウソウ）,,,北区扇町2丁目1番7号,,34.7047209,135.5104521,,,,,,,登録年月日：平成22年3月5日　概要：平成9年（1997年）竣工。市の土地信託事業により複合文化施設として建設された。現在は、関西テレビ放送の社屋となり、キッズプラザ大阪などが入居している。地上13階建てで、扇町公園に隣接し、ミラーガラス張りのデザインとなっている。,,,,,扇町キッズパーク（関西テレビ放送）,,,,,,文化・観光/都市景観資源
271004,,大阪府,大阪市,扇町公園,オオギマチコウエン,,,北区扇町1丁目、2丁目,,34.7043812,135.5087125,,,,,,,登録年月日：平成22年3月5日　概要：大正12年（1923年）開園。面積約7.3haの都市公園で、公園内には扇町プールや大型遊戯施設がある。,,,,,扇町公園,,,,,,文化・観光/都市景観資源
271004,,大阪府,大阪市,大阪天満宮,オオサカテンマングウ,,,北区天神橋2丁目1番8号、5番6号,,34.6959729,135.5127212,,,,,,,登録年月日：平成22年3月5日　概要：天暦3年（949年）創建。学問の神様として知られる菅原道真を祭っており、「天満の天神さん」の愛称で親しまれている。現在の本殿は、天保14年（1843年）に再建されたものである。梅花殿・神楽所・参集所は、国の登録文化財に指定されている。,,,,,大阪天満宮,,,,,,文化・観光/都市景観資源
271004,,大阪府,大阪市,川崎橋,カワサキバシ,,,北区天満１丁目・都島区網島町間,,34.6923486,135.5209577,,,,,,,登録年月日：平成22年3月5日　概要：昭和53年(1978年)架橋。橋長約129ｍの2径間連続斜張橋である。中之島公園と千里の万博記念公園を結ぶ大規模自転車道の一環として架設された。,,,,,川崎橋,,,,,,文化・観光/都市景観資源
271004,,大阪府,大阪市,菅原町の土蔵,スガワラチョウノドゾウ,,,北区菅原町6番1号,,34.6934048,135.5099178,,,,,,,登録年月日：平成22年3月5日　概要：　　完成年度は不明。大正時代に乾物問屋の蔵として建築されたと推測される。周辺には、その当時の土蔵の一部が倉庫や事務所として使われている。,,,,,菅原町の土蔵,,,,,,文化・観光/都市景観資源
271004,,大阪府,大阪市,泉布観,センプカン,,,北区天満橋1丁目1番1号,,34.6981107,135.5214109,,,,,,,登録年月日：平成22年3月5日　概要：明治4年（1871年）落成。造幣寮（現在の造幣局）の応接所として建設。全国でも最も古い洋風建築の一つである。明治天皇自身が命名。大正6年(1917年)に大阪市に移管された。昭和31年（1956年）、洋風建築としては全国に先駆けて国の重要文化財に指定された。,,,,,泉布観,,,,,,文化・観光/都市景観資源
271004,,大阪府,大阪市,造幣局桜の通り抜け,ゾウヘイキョクサクラノトオリヌケ,,,北区天満１丁目1番79号,,34.696658,135.5210176,,,,,,,登録年月日：平成22年3月5日　概要：造幣局の創業は、明治4年（1871年）4月。明治16年（1883年）に桜のトンネルの「通り抜け」が開始され、造幣局構内大川沿いの全長560ｍの通路を1週間一般開放している。現在、120品種以上340本以上の桜を数え、大半は遅咲きの八重桜である,,,,,造幣局桜の通り抜け,,,,,,文化・観光/都市景観資源
271004,,大阪府,大阪市,ちゃやまちプロムナード,チャヤマチプロムナード,,,北区茶屋町16番、17番、19番,,34.7080024,135.5000125,,,,,,,登録年月日：平成22年3月5日　概要：梅田駅の北東に位置する延長約200ｍの高木のケヤキ並木道である。この道は、地権者自らが将来の町の姿を共有し、細街路を両側４ｍ以上壁面後退して生み出したものである。一部、夜間のライトアップが行われている。,,,,,ちゃやまちプロムナード,,,,,,文化・観光/都市景観資源
271004,,大阪府,大阪市,天神橋,テンジンバシ,,,北区天神橋１丁目・中央区北浜東間,,34.6914206,135.5117214,,,,,,,登録年月日：平成22年3月5日　概要：最初の橋は、文禄3年（1594年）に架けられたと伝えられている。現在の橋は、昭和9年（1934年）に架橋されたものであり、橋長約210ｍの鋼アーチとなっている。,,,,,天神橋,,,,,,文化・観光/都市景観資源
271004,,大阪府,大阪市,天神橋筋商店街（2丁目）の看板,テンジンバシスジショウテンガイ（ニチョウメ）ノカンバン,,,北区天神橋2丁目,,34.6965512,135.5113933,,,,,,,登録年月日：平成22年3月5日　概要：天神橋筋商店街（2丁目）の入口にある看板。天神祭で御神霊を出迎えるお迎え人形をモチーフにしている。交差点北側、南側の2箇所に設置されている。,,,,,天神橋筋商店街（2丁目）の看板,,,,,,文化・観光/都市景観資源
271004,,大阪府,大阪市,天満天神繁昌亭,テンマテンジンハンジョウテイ,,,北区天神橋2丁目1番34号,,34.6965176,135.5125878,,,,,,,登録年月日：平成22年3月5日　概要：平成18年（2006年）オープン。天満に落語専門の定席を復活させるため、市民等より寄付を受け建設。天満宮の渡り船をイメージした外観となっており寄付者の名前を記した提灯が吊るされている。地上３階建てで、座席は1、2階の216席。,,,,,天満天神繁昌亭,,,,,,文化・観光/都市景観資源
271004,,大阪府,大阪市,難波橋,ナニワバシ,,,北区西天満1丁目・中央区北浜1丁目、2丁目間,,34.692664,135.5070821,,,,,,,登録年月日：平成22年3月5日　概要：土佐堀川・中之島公園・堂島川に架かる橋。大正4年（1915年）架橋。橋長約190ｍであり、橋の両サイドに「阿」と「吽」それぞれ２体のライオンの像が置かれている。現在の橋は、昭和50年（1975年）に改修されたものであるが装飾部分等は旧来のものが使われている。,,,,,難波橋,,,,,,文化・観光/都市景観資源
271004,,大阪府,大阪市,みおつくしプロムナード,ミオツクシプロムナード,,,北区中之島1丁目,,34.6932438,135.5022561,,,,,,,登録年月日：平成22年3月5日　概要：市役所の南側に位置する延長約210ｍのケヤキ並木の自転車歩行者専用道となっている。また、期間限定で、夜間のライトアップも行われている。,,,,,みおつくしプロムナード,,,,,,文化・観光/都市景観資源
271004,,大阪府,大阪市,道引地蔵尊,ミチビキジゾウソン,,,北区豊崎1丁目2番7号,,34.7098168,135.5032088,,,,,,,登録年月日：平成22年3月5日　概要：明治24年（1891年）に建立。4畳半ほどのお堂に、お地蔵さんが佇んでおり、地域の人々の信仰を集めている。,,,,,道引地蔵尊,,,,,,文化・観光/都市景観資源
271004,,大阪府,大阪市,城北公園,シロキタコウエン,,,旭区生江3丁目,,34.7293515,135.5394012,,,,,,,"登録年月日：平成22年3月5日　概要：昭和9年（1934年）開園。旧淀川の河川敷を利用して造られた約9.5haの都市公園で、公園内には約1.3haの城北菖蒲園があり、毎年6月には約250品種、13,000株の花菖蒲が咲く。",,,,,城北公園,,,,,,文化・観光/都市景観資源
271004,,大阪府,大阪市,千林の長屋,センバヤシノナガヤ,,,旭区千林2丁目14番,,34.7250092,135.5538636,,,,,,,登録年月日：平成22年3月5日　概要：昭和12年（1937年）建築の2階建長屋。9軒（4軒と5軒）が軒を連ね、通りに玄関と台所が面し、台所部分の屋根は入母屋式となっている。,,,,,千林の長屋,,,,,,文化・観光/都市景観資源
271004,,大阪府,大阪市,淀川城北ワンド,ヨドガワシロキタワンド,,,旭区赤川4丁目、生江3丁目、中宮5丁目、大宮5丁目,,34.7314203,135.5330086,,,,,,,登録年月日：平成22年3月5日　概要：城北公園付近の堤防に位置し、天然記念物・イタセンパラの生息場所となるなど、多様な生態系を形成している。現地ではワンドの環境を守るためのクリーンキャンペーンが行われている。,,,,,淀川城北ワンド,,,,,,文化・観光/都市景観資源
271004,,大阪府,大阪市,大阪市中央公会堂,オオサカシチュウオウコウカイドウ,,,北区中之島1丁目1番27号,,34.693533,135.5040085,,,,,,,登録年月日：平成15年4月11日　概要：北浜の株式仲買人・岩本栄之助が私財100万円（現代で約50億円）を大阪市に寄贈し、辰野金吾らの設計により、大正7年（1918年）に建設された（地上3階、地下1階）。ヘレン・ケラーやガガーリンなどの著名人の講演やコンサートなどに活用され、大阪の近代文化の形成に大きく貢献してきた。,,,,,大阪市中央公会堂,,,,,,文化・観光/都市景観資源
271004,,大阪府,大阪市,お初天神（露天神社）,オハツテンジン（ツユノテンジンジャ）,,,北区曽根崎2丁目5番4号,,34.6993437,135.5008231,,,,,,,登録年月日：平成15年4月11日　概要：露天神社は、創建以来1300年ともいわれ、菅原道真の詠んだ歌から露天神社とも称する。一般には、近松門左衛門の名作「曾根崎心中」の遊女お初にちなんでお初天神と呼ばれている。昭和20年（1945年）、戦災により焼失したため、昭和32年（1957年）に社殿が再建され、平成5年（1993年）の改修により境内は一新されている。,,,,,お初天神（露天神社）,,,,,,文化・観光/都市景観資源
271004,,大阪府,大阪市,桜宮橋,サクラノミヤバシ,,,北区天満1丁目・都島区網島町間,,34.6975719,135.5228408,,,,,,,登録年月日：平成15年4月11日　概要：昭和5年（1930年）に第一次都市計画事業によって大川（旧淀川）に架けられたアーチ橋で、最大支間は104mとアーチ橋としては戦前では日本最大であった。アーチの両端にロマネスク風の昇降口があり、橋の景観を高めている。意匠指導は武田五一による。銀色に塗られているため、銀橋と呼ばれ親しまれている。,,,,,桜宮橋,,,,,,文化・観光/都市景観資源
271004,,大阪府,大阪市,大阪府立中之島図書館,オオサカフリツナカノシマトショカン,,,北区中之島1丁目2番10号,,34.6934048,135.5033927,,,,,,,登録年月日：平成16年10月8日　概要：明治37年（1904年）に住友吉左衛門友純の寄付により、大阪で初めての学術図書館として開館した。設計は野口孫市と日高胖で、施工は久保田小三郎。竣工当初は中央の十字型の建物だけで、大正11年（1922年）に両翼の部分が住友家の寄付をもとに、日高胖の設計によって増築された。国の重要文化財に指定されている。なお、東側にも戦前から近年にかけて別館等が増築された。,,,,,大阪府立中之島図書館,,,,,,文化・観光/都市景観資源
271004,,大阪府,大阪市,毛馬桜之宮公園,ケマサクラノミヤコウエン,,,北区長柄東2丁目～天神橋1丁目、都島区友渕町1丁目～網島町,,34.7177179,135.5207892,,,,,,,登録年月日：平成16年10月8日　概要：大川の毛馬閘門から下流の天満橋まで、川の両岸に連なる延長4.2km、面積約30haの都市公園。大川の流れに沿ったプロムナードには桜並木が続く。3月下旬から4月上旬には、ソメイヨシノなど約4700本の桜が満開となる。,,,,,毛馬桜之宮公園,,,,,,文化・観光/都市景観資源
271004,,大阪府,大阪市,淀屋橋,ヨドヤバシ,,,大阪市北区中之島1丁目、2丁目・中央区北浜3丁目、4丁目間,,34.6929598,135.5009356,,,,,,,登録年月日：平成16年10月8日　概要：大正10年（1921年）に決定された第一次都市計画事業における御堂筋の建設の一環として土佐堀川に架けられた。北側の大江橋とともに橋梁設計の分野では珍しい一般公募のデザインコンペで大谷瀧雄氏の案が選ばれ、これをもとに実施設計が行われたものである。昭和10年（1935年）に完成。国の重要文化財に指定されている。,,,,,淀屋橋,,,,,,文化・観光/都市景観資源
271004,,大阪府,大阪市,大阪城天守閣,オオサカジョウテンシュカク,,,中央区大阪城1丁目1番,,34.6872842,135.5258463,,,,,,,登録年月日：平成15年4月11日　概要：大阪城は、天正11年（1583年）豊臣秀吉により築かれたが、大坂夏の陣で焼失、堀も石垣も全て徳川幕府の手で作り直された。天守閣は、その後落雷により焼失したままであったが、昭和6年（1931年）、市民の寄付により豊臣秀吉創建時の姿に再建されたもので、鉄筋コンクリート造、外部5層、内部8層で、館内は秀吉と大阪城を中心とした歴史博物館として活用されている。平成9年（1997年）の大改修により美しい姿がよみがえっている。,,,,,大阪城天守閣,,,,,,文化・観光/都市景観資源
271004,,大阪府,大阪市,旧小西家住宅,キュウコニシケジュウタク,,,中央区道修町1丁目6番10号,,34.6886898,135.5067991,,,,,,,登録年月日：平成15年4月11日　概要：旧小西儀助商店（現コニシ株式会社）の旧店舗・住宅で、明治36年（1903年）に一部3階建で完成、堺筋の拡幅で西側が切り取られ、のち3階部分を撤去して現在の姿になった。船場に残る数少ない町屋の遺構のひとつとして、薬種問屋の形態を残した土蔵造り風の外観が特徴で、重要文化財に指定されている。内部は非公開。,,,,,旧小西家住宅,,,,,,文化・観光/都市景観資源
271004,,大阪府,大阪市,道頓堀グリコネオン,ドウトンボリグリコネオン,,,中央区道頓堀1丁目10番1号,,34.668857,135.5011788,,,,,,,登録年月日：平成15年4月11日　概要：昭和10年（1935年）に戎橋のそばに初めてグリコのネオン塔が立って以来、デザインが改良され、現在のもので5代目となる。高さ20ｍ、横幅約11ｍと大規模で、ランナーが大阪城や海遊館、大阪ドーム、通天閣を背景に大阪の街を走るデザインとなっている。日没30分前に点灯し、24時に消灯し、道頓堀川の水面に映し出されるネオンも名物のひとつとなっている。,,,,,道頓堀グリコネオン,,,,,,文化・観光/都市景観資源
271004,,大阪府,大阪市,生駒時計店（生駒ビルヂング）,イコマトケイテン（イコマビルヂング）,,,中央区平野町2丁目2番12号,,34.6875146,135.5063578,,,,,,,登録年月日：平成16年10月8日　概要：明治3年（1870年）に高麗橋5丁目で創業した生駒時計店が、御堂筋の拡幅と地下鉄工事を機に現在地に当ビルを新築。昭和5年（1930年）に竣工した。設計は宗兵藏。国の登録有形文化財に登録されている。,,,,,生駒時計店（生駒ビルヂング）,,,,,,文化・観光/都市景観資源
271004,,大阪府,大阪市,大阪倶楽部,オオサカクラブ,,,中央区今橋4丁目4番11号,,34.690984,135.4989278,,,,,,,登録年月日：平成16年10月8日　概要：大阪財界人によって経済都市大阪の進取的社交場として創設された社団法人大阪倶楽部の旧館が、大正11年（1922年）に焼失したあと、安井武雄の設計により大正13年（1924年）に再建された。国の登録有形文化財に登録されている。,,,,,大阪倶楽部,,,,,,文化・観光/都市景観資源
271004,,大阪府,大阪市,綿業会館,メンギョウカイカン,,,中央区備後町2丁目5番8号,,34.6854933,135.503896,,,,,,,登録年月日：平成16年10月8日　概要：東洋紡の役員であった岡恒夫の遺贈金と関係業界からの醸出金をもとに、綿業関係者の倶楽部会館として、昭和6年（1931年）に竣工した。設計は渡辺節。国の重要文化財に指定されている。,,,,,綿業会館,,,,,,文化・観光/都市景観資源
271004,,大阪府,大阪市,港大橋,ミナトオオハシ,,,港区海岸通3丁目・住之江区南港東9丁目間,,34.6444272,135.4379345,,,,,,,登録年月日：平成15年4月11日　概要：昭和49年（1974年）に完成した最大支間長510ｍのダブルデッキ形式のゲルバートラス橋で、阪神高速道路に架けられた橋の中で最も長い支間長を持ち、トラス橋としては世界第3位の規模を誇っている。また、橋下を4万トン級の大型コンテナ船が航行できるよう、海面から桁下までは50ｍ以上の空間が確保されている。そのスケールや色彩、重量感から、大阪港のランドマークになっている。,,,,,港大橋,,,,,,文化・観光/都市景観資源
271004,,大阪府,大阪市,一心寺,イッシンジ,,,天王寺区逢坂2丁目8番69号,,34.6530481,135.5108179,,,,,,,登録年月日：平成15年4月11日　概要：約800年前に法然上人が、四天王寺の西、海に沈む夕陽が望めるあたりに造った草庵が一心寺のはじまりで、骨仏の寺として全国的に有名。昭和20年（1945年）、戦災によりほとんど焼失したが、その後、昭和41年（1966年）には本堂が再建され、その後も念仏堂・山門など伽藍の再興が進められている。,,,,,一心寺,,,,,,文化・観光/都市景観資源
271004,,大阪府,大阪市,総本山四天王寺,ソウホンザンシテンノウジ,,,天王寺区四天王寺1丁目11番18号,,34.6552594,135.5174064,,,,,,,登録年月日：平成15年4月11日　概要：四天王寺は、推古天皇元年（593年）聖徳太子により創建された日本最古の官寺で、南北一列に並ぶ伽藍配置は四天王寺様式と呼ばれる。たびたびの戦火や災害にあたってきたが、西門の石鳥居や、元和9年（1623年）再建の六時堂・五智光院・本坊方丈などは重要文化財に指定されており、中心伽藍は昭和38年（1963年）に鉄筋コンクリート造で再建が完成した。,,,,,総本山四天王寺,,,,,,文化・観光/都市景観資源
271004,,大阪府,大阪市,通天閣,ツウテンカク,,,浪速区恵美須東1丁目18番6号,,34.6525337,135.5063874,,,,,,,登録年月日：平成15年4月11日　概要：通天閣は、明治45年（1912年）内国勧業博の会場跡に新世界・ルナパークとともに完成。昭和18年（1943年）火災にあい、鉄材供出により解体され姿を消したが、地元の熱い思いを受けて、昭和31年に2代目通天閣が再建された。高さ103ｍ、円形エレベーター、展望台が設置されており、平成8年（1996年）の改修によりリニューアルされたネオンは、交通安全の標語、天気予報にも活用されている。,,,,,通天閣,,,,,,文化・観光/都市景観資源
271004,,大阪府,大阪市,菅原城北大橋,スガハラシロキタオオハシ,,,東淀川区豊里1丁目・旭区生江3丁目間,,34.7347419,135.5356074,,,,,,,登録年月日：平成15年4月11日　概要：大阪市で最初に有料道路の事業を取り入れて平成元年に完成した斜張橋で、普通車の通行料が100円であることから、百円橋と呼ばれ親しまれている。2つのタワーが他本数のケーブルに力を分散して支えている姿が美しい。この橋が架かる淀川には、ヨシ原や天然記念物のイタセンパラの棲むワンドがあり、建設にあたってはこれらの保全に配慮された。また城北公園の中を通るため景観面で数々の検討がなされた。,,,,,菅原城北大橋,,,,,,文化・観光/都市景観資源
271004,,大阪府,大阪市,水道記念館（旧柴島浄水場第1配水ポンプ場）,スイドウキネンカン（キュウクニジマジョウスイジョウダイイチハイスイポンプジョウ）,,,東淀川区柴島1丁目3番1号,,34.7244015,135.5054031,,,,,,,登録年月日：平成16年10月8日　概要：水道記念館の建物は、宗兵藏の設計で、大正3年（1914年）に竣工。市勢発展による人口急増に伴う給水量を確保するため、明治41年（1897年）から始まった第2回水道拡張事業において建てられた送水ポンプ場「旧第1配水ポンプ場」の建物を保存活用した記念館。国の登録有形文化財に登録されている。,,,,,水道記念館（旧柴島浄水場第1配水ポンプ場）,,,,,,文化・観光/都市景観資源
271004,,大阪府,大阪市,花博記念公園鶴見緑地,ハナハクキネンコウエンツルミリョクチ,,,鶴見区緑地公園他,,34.7118339,135.5787373,,,,,,,登録年月日：平成16年10月8日　概要：戦前に過密都市対策の一環として計画された大阪を代表する四大緑地のひとつ。平成2年（1990年）に国際花と緑の博覧会の開催後、再整備された都市公園。面積約120haという広大な敷地は造成によって変化のある自然景観を形成。博覧会の開催に合わせて地下鉄が整備され、また、公園に隣接してUNEP国際環境技術センターなどの施設も整備された。,,,,,花博記念公園鶴見緑地,,,,,,文化・観光/都市景観資源
271004,,大阪府,大阪市,宗教法人住吉大社,シュウキョウホウジンスミヨシタイシャ,,,住吉区住吉2丁目9番89号,,34.6129193,135.4930306,,,,,,,登録年月日：平成15年4月11日　概要：草創は神功皇后の海外渡航時の安全祈願の故事に由来すると伝えられるが、現在の本殿4棟は、文化5年（1808年）造営されたもので、桧皮葺き・切妻造り妻入りの住吉造りと称され、市内唯一の国宝建造物である。境内には、慶長11年（1606年）に架設され住吉大社の象徴ともいえる朱塗りの太鼓橋（反橋）をはじめ、重要文化財の石舞台や南門・東西楽所などや、全国から献灯された石灯ろう600余基などもある。,,,,,宗教法人住吉大社,,,,,,文化・観光/都市景観資源
271004,,大阪府,大阪市,杭全神社,クマタジンジャ,,,平野区平野宮町2丁目1番67号,,34.6282318,135.5548136,,,,,,,登録年月日：平成16年10月8日　概要：平安時代の初め、貞観4年（862年）に坂上廣野麿の子當道が、氏神を祭ったのが始まりとされる神社である。社殿のうち第二殿・第三殿は、永正10年（1513年）造営の記録があり、第一殿とあわせて国の重要文化財に、全国で唯一の連歌所は市の指定文化財に、また、境内のクスノキとイチョウが市の保存樹にそれぞれ指定されている。,,,,,杭全神社,,,,,,文化・観光/都市景観資源
271004,,大阪府,大阪市,大念佛寺,ダイネンブツジ,,,平野区平野上町1丁目7番26号,,34.6272745,135.5505138,,,,,,,登録年月日：平成16年10月8日　概要：融通念仏宗の総本山で、大治2年（1127年）に聖応大師（良忍上人）が開基したと伝えられている。明治31年（1898年）に火災があり本堂以下多数の堂宇を失った。現在の本堂は昭和13年（1938年）に竣工した大阪府内最大の木造建築物で、国の登録有形文化財に登録されている。また、境内のクスノキとイチョウが市の保存樹に指定されている。,,,,,大念佛寺,,,,,,文化・観光/都市景観資源
271004,,大阪府,大阪市,深江郷土資料館,フカエキョウドシリョウカン,,,東成区深江南3-16-14,,34.6699161,135.5609237,,,,,,,,,,,,深江郷土資料館,06-6977-5555,,,,,文化・観光/美術館・博物館
271004,,大阪府,大阪市,花川墓地,ハナカワボチ,,,大阪市西淀川区柏里２丁目１０番,,34.7097666,135.4665184,,,,,,,,,,,,花川墓地,,,,,,文化・観光/その他施設
271004,,大阪府,大阪市,安治川,アジガワ,,,西区川口2丁目、福島区野田1丁目～港区弁天6丁目、此花区西九条7丁目地先,,34.6835287,135.4801218,,,,,,,貞享元年（1684年）、幕府の命を受けた河村瑞賢によって開削された。その結果、大阪の街の中心へ船の出入りが容易になり大阪の発展に寄与した。河川の両岸には、舟運が盛んだったころを偲ばせる工場や倉庫などが建ち並び、「大阪港開港の地」の碑をはじめ、多くの石碑が存在している。,,,,,安治川,,,,,,文化・観光/都市景観資源
271004,,大阪府,大阪市,靱公園,ウツボコウエン,,,西区靭本町1丁目、2丁目,,34.6854973,135.4941032,,,,,,,昭和30年（1955年）開園。なにわ筋を挟んで東西に分かれている。東園には、バラ園や四季に彩られるケヤキ並木などがある。バラ園はゆるやかに起伏する地形を生かして、東から西に向かって山、里山、田園、街と広がる「大阪のマチ構造」を表現し、平成16年（2004年）に再整備された。西園には国際大会にも利用できる靱テニスセンターがある。,,,,,靱公園,,,,,,文化・観光/都市景観資源
271004,,大阪府,大阪市,江戸堀コダマビル,エドボリコダマビル,,,西区江戸堀1丁目10番26号,,34.6896124,135.4954002,,,,,,,昭和10年（1935年）個人の邸宅として建設。設計・施工はヴォーリズ建築を手がけた岡本工務店でファサードに特色がある。建設当時、敷地の南には江戸堀川が流れ、窓から川面が見えていた。現在は、物販店や貸会議室、音楽室などとして活用されている。国の登録有形文化財に登録されている。,,,,,江戸堀コダマビル,,,,,,文化・観光/都市景観資源
271004,,大阪府,大阪市,大阪アドプト・リバー・千代崎（木津川右岸）,オオサカアドプト・リバー・チヨザキ（キヅガワウガン））,,,西区千代崎2丁目、3丁目地先,,34.6715526,135.4799332,,,,,,,水の都大阪再生構想の一環として大阪府により木津川右岸に船着場と遊歩道が整備された。それに伴い、平成17年（2005年）、千代崎連合振興町会と大阪府との間でアドプトリバー・プログラム協定が締結され、本区間は美化・清掃活動により美しい景観が保たれている。,,,,,大阪アドプト・リバー・千代崎（木津川右岸）,,,,,,文化・観光/都市景観資源
271004,,大阪府,大阪市,旧岩崎運河,キュウイワサキウンガ,,,西区千代崎3丁目、大正区三軒家西1丁目、2丁目地先,,34.6673051,135.4742671,,,,,,,木津川と尻無川を結ぶ長さ560ｍの運河。尻無川が大型船の航行に不向きであったため、尻無川と木津川を結ぶために大正9年（1920年）に開削された。下流には、昭和3年（1928年）に岩崎運河橋梁が架けられ、ＪＲ環状線の一部となっている。右岸には、岩崎橋地区の開発に合わせて親水性の高い空間が整備されている。なお、現在は木津川分派点から旧岩崎運河を含む河口までが尻無川である。,,,,,旧岩崎運河,,,,,,文化・観光/都市景観資源
271004,,大阪府,大阪市,京セラドーム大阪,キョウセラドームオオサカ,,,西区千代崎3丁目,,34.6690373,135.476138,,,,,,,平成9年（1997年）にオープンした全天候型の多目的ドーム。アリーナ上部の大屋根の外周に、さらに小型の屋根が取り囲むようにうねりながら続いている点が特徴的。プロ野球やスポーツイベント、文化イベントなど、年間を通じて各種イベント等に活用されている。,,,,,京セラドーム大阪,,,,,,文化・観光/都市景観資源
271004,,大阪府,大阪市,島谷家住宅,シマタニケジュウタク,,,西区本田4丁目9番3号,,34.6787866,135.4721785,,,,,,,本田4丁目には戦災を逃れた長屋の街並みが残っている。その一角にある長屋住宅では、１階に格子の玄関や出格子の窓が見られ、１階屋根と2階屋根の間にうだつが上がっている。,,,,,島谷家住宅,,,,,,文化・観光/都市景観資源
271004,,大阪府,大阪市,菅澤眼科クリニック,スガサワガンカクリニック,,,西区土佐堀2丁目3番5号,,34.6883493,135.4900116,,,,,,,昭和３年（1928年）に建築、昭和22年（1947年）に改修された眼科医院。正面玄関の柱とアーチ、ドイツから輸入されたタイル貼りの外壁、細長いアーチ窓が特徴的である。,,,,,菅澤眼科クリニック,,,,,,文化・観光/都市景観資源
271004,,大阪府,大阪市,道頓堀川水門,ドウトンボリガワスイモン,,,西区南堀江4丁目、浪速区幸町3丁目,,34.6689398,135.4813864,,,,,,,平成12年度（2001年3月）完成。東横堀川水門とあわせ、高潮防御機能、水質浄化機能、舟運活性化機能などの役割を果たしている。木津川の対岸にある岩崎橋地区の景観に配慮した設計となっており、近未来的な外観デザインが特徴的である。,,,,,道頓堀川水門,,,,,,文化・観光/都市景観資源
271004,,大阪府,大阪市,長瀬産業大阪本社ビル本館,ナガセサンギョウオオサカホンシャビルホンカン,,,西区新町1丁目1番17号,,34.6784723,135.4974281,,,,,,,昭和3年（1928年）竣工。設計者は初代通天閣を設計した設楽貞雄。中央のバルコニーが特徴的で、外壁はスクラッチタイルを使用している。新館が昭和57年（1982年）に建てられているが、そのデザインは、立面の構成や窓の配列など旧館へ配慮している。,,,,,長瀬産業大阪本社ビル本館,,,,,,文化・観光/都市景観資源
271004,,大阪府,大阪市,日本聖公会川口基督教会,ニホンセイコウカイカワグチキリストキョウカイ,,,西区川口1丁目3番8号,,34.6821585,135.4821821,,,,,,,煉瓦造の聖堂は大正9年（1920年）に竣工。設計者は建築家ウィリアム・ウィルソン。東側に玄関ホールを設け、東南角に高さ19mの搭屋を構える。平成7年（1995年）の阪神・淡路大震災で大きな被害を受けたが、関係者の熱意により修復された。,,,,,日本聖公会川口基督教会,,,,,,文化・観光/都市景観資源
271004,,大阪府,大阪市,安治川水門,アジガワスイモン,,,港区弁天6丁目,,34.6756399,135.4561375,,,,,,,大阪ではジェーン台風や第2室戸台風など高潮による大きな被害を受けてきたことから、その対策として、昭和45年（1970年）に建設された。耐震、耐風の安全性や、船舶航行時の必要上部空間を確保出来ることからアーチ型水門（幅57ｍ）が採用された。,,,,,安治川水門,,,,,,文化・観光/都市景観資源
271004,,大阪府,大阪市,大阪市築港赤レンガ倉庫,オオサカシチッコウアカレンガソウコ,,,港区海岸通2丁目6番1号,,34.6514545,135.4368349,,,,,,,大正12年（1923年）、住友倉庫により港湾倉庫として建設。港区では空襲にも焼け残った数少ない建造物。現在は大阪市が管理している。耐震上の問題から閉鎖しているが、広く市民に親しんでいただけるよう隣接する広場を開放するなど、今後とも倉庫の活用に向けた検討を行うこととしている。,,,,,大阪市築港赤レンガ倉庫,,,,,,文化・観光/都市景観資源
271004,,大阪府,大阪市,桜通り,サクラドオリ,,,港区磯路3丁目～弁天3丁目,,34.6642825,135.4571387,,,,,,,桜通りには、南北800ｍに渡ってソメイヨシノとサトザクラが植えられている。桜並木は、地域住民により植えられ、管理されているもので、港区の桜の名所となっている。桜の開花時期には地元愛護会によりぼんぼりが飾られる。,,,,,桜通り,,,,,,文化・観光/都市景観資源
271004,,大阪府,大阪市,桜通り,,,,港区磯路3丁目～弁天3丁目,,34.6642825,135.4571387,,,,,,,桜通りには、南北800ｍに渡ってソメイヨシノとサトザクラが植えられている。桜並木は、地域住民により植えられ、管理されているもので、港区の桜の名所となっている。桜の開花時期には地元愛護会によりぼんぼりが飾られる。,,,,,桜通り,,,,,,文化・観光/都市景観資源
271004,,大阪府,大阪市,北中道の古い街並み,キタナカミチノフルイマチナミ,,,東成区中道4丁目16番、17番,,34.6742451,135.538869,,,,,,,かつて平野川と暗越奈良街道とが交差する玉津橋は、交通の要所として賑わっていた。玉津橋西詰を北に入ると、通りの両側に蔵や板塀のある民家が連続しており、古い街並みを形成している。,,,,,北中道の古い街並み,,,,,,文化・観光/都市景観資源
271004,,大阪府,大阪市,旧三井釦被服,キュウミツイボタンヒフク,,,東成区大今里4丁目27番22号,,34.6678326,135.5486873,,,,,,,今里周辺には明治中期から大正にかけてボタンや被服の製造に携わる事業者が数多く存在した。そのなかで三井釦被服は最も大きな事業者であった。この建物は、昭和初期に軍の要請で四条畷市に青年学校校舎として建てられたが、青年学校校舎としては使用されず、小学校仮校舎として使用され、戦後になってから現在の地に移築したといわれる。移設当時から被服製品の販売を行っていたが、後に改装して用途の転用を図っている。移築当時は、左右対称の建物であったが、左側部分が取り壊され、非対称となっている。,,,,,旧三井釦被服,,,,,,文化・観光/都市景観資源
271004,,大阪府,大阪市,真言宗御室派密華山妙法寺,シンゴンシュウオムロハミッケザンミョウホウジ,,,東成区大今里4丁目16番50号,,34.669031,135.548083,,,,,,,聖徳太子の創建と伝えられる。石山合戦で焼失した本堂は、享保年間（1716年頃）に再建された。近世国学の祖と言われる契沖が、延宝7年（1679）から元禄3年（1690）まで住職を務め、ここで「万葉代匠記」を記したといわれ、境内は大阪府の史跡に指定されている。,,,,,真言宗御室派密華山妙法寺,,,,,,文化・観光/都市景観資源
271004,,大阪府,大阪市,玉津の昭和初期の街並み,タマヅノショウワショキノマチナミ,,,東成区玉津3丁目2番,,34.6668851,135.5365008,,,,,,,玉津周辺は、映画「血と骨」の舞台となった場所である。映画に出てくる市電「大成通一丁目」停車場（昭和44年（1969年）廃止）の周辺には、サンデー毎日創刊時からの看板、昭和8年（1933年）創業の食堂など昭和初期の街並みが残っている。,,,,,玉津の昭和初期の街並み,,,,,,文化・観光/都市景観資源
271004,,大阪府,大阪市,八王子神社御旅所の楠,ハチオウジジンジャオタビショノクスノキ,,,東成区大今里1丁目17番10号,,34.6731975,135.5453995,,,,,,,八王子神社御旅所の楠は、樹齢1300年を数えるとされ、明治18年（1886年）の洪水の際には、楠の上に、いかだを組んで難を逃れたという言い伝えがある。幹周11m、樹高25mで、大阪市の保存樹に指定されている。八王子神社御旅所は、この樹の見事さから楠神社とも呼ばれている。,,,,,八王子神社御旅所の楠,,,,,,文化・観光/都市景観資源
271004,,大阪府,大阪市,東小橋の街並み,ヒガシオバセノマチナミ,,,東成区東小橋3丁目6番～9番,,34.6667443,135.5341191,,,,,,,東小橋にある比賣許曽神社の歴史は古く、古事記では新羅から渡来した赤留比売命を祀ったと記され、石山合戦の兵火にあい、現在の地に移ったとされている。比賣許曽神社の周辺は、かつて江戸時代・明治時代の東小橋村の中心であった。現在でも、比賣許曽神社のほか、安楽寺、格子のある民家など、戦災から逃れた昔の街並みが残っている。,,,,,東小橋の街並み,,,,,,文化・観光/都市景観資源
271004,,大阪府,大阪市,火袋式道標,ヒブクロシキドウヒョウ,,,東成区大今里4丁目27番,,34.6677517,135.5491434,,,,,,,暗越奈良街道と千日前通が交差する場所に立つ道標。上部を四角にくりぬいて火袋とし、上に笠をのせた形状をしている。文化3年（1806年）に釘問屋が建てたといわれており、道標には「右志き山、八尾久宝寺道　左いせ、なら道」と示されている。,,,,,火袋式道標,,,,,,文化・観光/都市景観資源
271004,,大阪府,大阪市,深江の建築物、史跡群,フカエノケンチクブツ、シセキグン,,,東成区深江南3丁目5番～22番,,34.6699545,135.5605154,,,,,,,昔、良質の菅の生い繁った深江の地に、笠を縫うことを職業とした大和の一族が集団移住したことが始まりと伝えられている。菅笠・菅細工などの伝統文化が現在も継承され、伊勢神宮式年遷宮に使用する菅笠を納めている。深江集落には、笠縫邑跡として史跡に指定されている深江稲荷神社、法明寺などがあり、茅葺屋根形状の家屋、蔵、地蔵堂も多く見ることができる。,,,,,深江の建築物、史跡群,,,,,,文化・観光/都市景観資源
271004,,大阪府,大阪市,矢田地蔵尊,ヤタジゾウソン,,,東成区東小橋1丁目4番2号,,34.673978,135.5350489,,,,,,,玉造駅から東に入った暗越奈良街道沿いにある。峠越えをして奈良へいくときに、ここで願掛けをしたといわれている。奈良の矢田寺に縁のある地蔵で、地蔵堂の中央に安置された石の地蔵尊には、矢田寺への道しるべが彫られている。,,,,,矢田地蔵尊,,,,,,文化・観光/都市景観資源
271004,,大阪府,大阪市,もと精華小学校,モトセイカショウガッコウ,,,難波3-2,,34.6657713,135.5018316,,,,,,,,,,,,もと精華小学校,,,,,,文化・観光/その他施設
271004,,大阪府,大阪市,もと東平小学校,モトトウヘイショウガッコウ,,,中央区上本町西5-1,,34.668498,135.5187498,,,,,,,,,,,,もと東平小学校,,,,,,文化・観光/その他施設
271004,,大阪府,大阪市,樹齢200年のクスノキ,ジュレイ200ネンノクスノキ,,,福島区海老江3丁目4番20号,,34.6995029,135.4740117,,,,,,,樹齢約200年のクスノキが民家の塀から道にせり出して生えている。この木は一見すると塀の外から生えてきたように見えるが、実は根が家の地下までおよんでいる。背の高いトラックが枝に当るたびに振動が伝わり、家が大きく揺れるそうである。,,,,,樹齢200年のクスノキ,,,,,,文化・観光/都市景観資源
271004,,大阪府,大阪市,海老江八坂神社,エビエヤサカジンジャ,,,福島区海老江6丁目4番2号,,34.6988766,135.4708849,,,,,,,境内に天治(1120年代)の年号が刻まれた石灯籠があり、相当古い神社である。その昔は、牛頭天王社と呼ばれていたが、明治の初め八坂神社に改称された。この辺りは元々河口の砂洲で干拓により村ができ、鎮守社として創建されたものと思われる。毎年12月に古式そのままに、非公開で行われている宮座神事が大阪府無形文化財に指定されている。毎年夏祭りには地車3基、枕太鼓1基の巡行が行われ夏の風物詩のひとつになっている。,,,,,海老江八坂神社,,,,,,文化・観光/都市景観資源
271004,,大阪府,大阪市,聖天了徳院,ショウテンリョウトクイン,,,福島区鷺洲2丁目14番1号,,34.6984696,135.4829259,,,,,,,聖天さんの参道は、聖天通り商店街として江戸時代から栄えていたといわれる。今も住民の憩いの中心的寺院である。真言宗東寺派の寺院で歓喜天を祀っている。古くから「浦江の聖天さん」と呼ばれて親しまれ、大変賑わったところである。また、境内の桜・藤・杜若などが目を楽しませているとともに、丸角流の山門は大阪府の文化財に指定されている。,,,,,聖天了徳院,,,,,,文化・観光/都市景観資源
271004,,大阪府,大阪市,春日神社（野田藤発祥の地）,カスガジンジャ（ノダフジハッショウノチ）,,,福島区玉川2丁目2番7号,,34.6897882,135.4798416,,,,,,,春日神社は、新なにわ筋、玉川南公園の東、緑の玉垣に囲まれた小さな祠。野田村の庄屋であった藤家の氏神として祭られ、往時は広大な境内に大木に絡まりフジが一面に咲いていた。室町幕府二代将軍・足利義詮や豊臣秀吉もフジ見物に訪れたと伝わる。江戸時代は「藤之宮」とよばれ、この地のフジは「野田藤」の名で全国的に知られるようになった。祭神は天児屋根命・天照大神・宇賀御魂神である。その創建は藤原氏の分流、藤原藤足が、この地に移住して、その祖神春日明神を勧請したと、藤家に伝わる『藤伝記』にある。,,,,,春日神社（野田藤発祥の地）,,,,,,文化・観光/都市景観資源
271004,,大阪府,大阪市,大阪市中央卸売市場本場,オオサカシチュウオウオロシウリシジョウホンジョウ,,,福島区野田1丁目1番86号,,34.6842826,135.477592,,,,,,,大阪市中央卸売市場本場は、青果・水産物とその加工品や加工食料品を扱う卸売市場。西日本一の取扱高を誇る大規模集散市場である。近年は食品流通の基幹的役割を果たす機能や耐震構造の施設への建替を行い、安治川沿いには船着場や緑道が整備され区民の憩の場になっている。,,,,,大阪市中央卸売市場本場,,,,,,文化・観光/都市景観資源
271004,,大阪府,大阪市,野田恵美須神社,ノダエビスジンジャ,,,福島区玉川4丁目1番1号,,34.6883718,135.4791752,,,,,,,野田恵美須神社は「野田のえべっさん」で親しまれている。いつごろ創建されたのかは不明であるが、境内にある御影石に永久3年（1115年）と刻まれていることから、その頃と推測される。古来から「恵美須の大神」は漁業の神として祀られており、当時このあたりは難波八十島と呼ばれ、漁業中心の地域だった。毎年1月の十日戎には多くの参拝者で賑わい、夏祭りには地車・太鼓・鯛鉾の巡行が行われるなど、地元の氏神として信仰を集めている。,,,,,野田恵美須神社,,,,,,文化・観光/都市景観資源
271004,,大阪府,大阪市,トンネルの路地,トンネルノロジ,,,福島区野田2丁目17番12号,,34.6853075,135.4746538,,,,,,,野田商店街を北から南へと安治川の方へ抜ける途中の大野町公園を少し通りすぎた所にトンネルの路地がある。この路地は古い民家と薬屋さんの間の長さが10ｍにも満たない狭い通路であるが、民家の屋根が路地の上を覆いトンネルになっている。,,,,,トンネルの路地,,,,,,文化・観光/都市景観資源
271004,,大阪府,大阪市,野田の長屋,ノダノナガヤ,,,福島区野田3丁目13番38号～41号,,34.688654,135.4753834,,,,,,,福島区は戦災の被害にあまり遭わなかったため、長屋など昔の住居が比較的多く残っており、うだつのある家もある。昭和に入ってガラスが比較的安価に入手出来るようになり、大きくガラス窓を配した長屋が人気だった。,,,,,野田の長屋,,,,,,文化・観光/都市景観資源
271004,,大阪府,大阪市,野田緑道,ノダリョクドウ,,,福島区野田4～5丁目,,34.6842833,135.4725504,,,,,,,野田緑道は、昭和60年3月に廃線となった中央卸売市場への引き込み線跡地を公園として、整備したものである。地域の環境にうるおいを与える公園として整備され、現在では住民の憩いの空間として親しまれている。,,,,,野田緑道,,,,,,文化・観光/都市景観資源
271004,,大阪府,大阪市,ほたるまち,,,,福島区福島1丁目1番,,34.6939806,135.4888602,,,,,,,ほたるのようなやさしい光で川を照らす町になってほしいとの思いから「「ほたるまち」と名づけられ、平成20年(2008年)5月2日に誕生。梅田・福島・中之島が接する大阪の中心地にありながら、川の自然を感じられるこのまちは「文化・情報」（朝日放送本社、堂島リバーフォーラム、ABCホール）、「にぎわい」（堂島クロスウォーク）、「居住」（タワーマンション）の3つの機能を備えた複合都市である。また、「ほたるまち」はかつて中津藩の蔵屋敷があり、そこで福澤諭吉が生まれていることから、福沢諭吉誕生地の記念碑も建立されている,,,,,ほたるまち,,,,,,文化・観光/都市景観資源
271004,,大阪府,大阪市,福島天満宮,フクシマテンマングウ,,,福島区福島2丁目8番1号,,34.6948096,135.4871186,,,,,,,この天満宮は俗に「上之天神」と言われ、祭神は菅原道真・大国主命・事代主神などを祀っている。社伝によれば、延喜元年（901年）に菅原道真が、藤原時平により九州大宰府へ配転させられた際、当地の里人徳次郎が旅情を慰めたことをいたく喜ばれ、この辺りを餓飢島と呼ばれていたのを福島と名づけられた。後年、菅原道真が大宰府で失意のうちに死亡したのを聞いたこの地の里人らが、小祠を建てたのが起源とされている。,,,,,福島天満宮,,,,,,文化・観光/都市景観資源
271004,,大阪府,大阪市,莫大小（メリヤス）会館,メリヤスカイカン,,,福島区福島3丁目1番39号,,34.6906158,135.4845348,,,,,,,堂島大橋北詰に位置する「莫大小（メリヤス）会館」は、大阪輸出莫大小工業組合が、組合の事務所として、昭和4年（1929年）の第1期、昭和12年（1937年）の第2期に分け建設した。伸縮自在なメリヤスは莫大にも小にもなる意味から「莫大小（メリヤス）」とされた。現在は、テナントビルとして、建築設計事務所やレストラン・カフェ、ギャラリーなどが入居している。（設計：宗建築事務所、施行：大阪橋本組）,,,,,莫大小（メリヤス）会館,,,,,,文化・観光/都市景観資源
271004,,大阪府,大阪市,TKPゲートタワービル,,,,福島区福島5丁目4番21号,,34.6980675,135.489538,,,,,,,TKPゲートタワービル（Gate Tower Building）は、地上16階建てのオフィスビルである。通称「ビーハイブ（Beehive）」で、Beehiveとは「蜂の巣」、「にぎやかな場所」という意味である。高速道路がこのビルを貫通しているのが特徴で、立体道路制度適用第1号のビルである。,,,,,TKPゲートタワービル,,,,,,文化・観光/都市景観資源
271004,,大阪府,大阪市,旧川崎貯蓄銀行福島出張所（ミナミビル）,キュウカワサキチョチクギンコウフクシマシュッチョウジョ,,,福島区福島5丁目17番7号,,34.6951306,135.4848757,,,,,,,JR新福島駅近くの国道2号線に面したミナミ株式会社の建物は昭和9年(1934年)に建てられ、国の登録文化財に登録されている。鉄筋2階・地下1階建てのミナミビルは、イオニア式の4本の円柱が取り付けられた正面が後方に緩やかなカーブを描き、奥行き感を出している。玄関の円弧状のひさしには彫刻が施されているほか、ビル内部の柱の頭にもコリント式飾りが見られ、華やかさを演出している。,,,,,旧川崎貯蓄銀行福島出張所（ミナミビル）,,,,,,文化・観光/都市景観資源
271004,,大阪府,大阪市,日本基督教団　大阪福島教会,ニホンキリストキョウダン　オオサカフクシマキョウカイ,,,福島区福島7丁目19番16号,,34.6999312,135.4851365,,,,,,,大阪福島教会は心斎橋の大丸百貨店を手がけた建築家のヴォーリズの設計により昭和元年（1926年）に起工し、同年12月に竣工、昭和2年（1927年）に献堂式を行った。その後2回の修繕を経て、戦後の昭和25年（1950年）の大修理で装いを一変した。,,,,,日本基督教団　大阪福島教会,,,,,,文化・観光/都市景観資源
